,City,Lat,Lng,Max Temp,Humidity,Cloudiness,Wind Speed,Country,Date
0,hilo,19.7297,-155.09,78.28,85,0,8.05,us,1655105692
1,icatu,-2.7758,-44.0658,79.23,93,0,3.47,br,1655105693
2,port alfred,-33.5906,26.891,72.18,42,100,4.0,za,1655105450
3,albany,42.6001,-73.9662,65.39,93,100,2.53,au,1655105615
4,tabou,4.423,-7.3528,78.84,72,88,7.25,ci,1655105697
5,clyde river,70.4692,-68.5914,30.43,86,100,5.75,ca,1655105698
6,port hardy,50.6996,-127.4199,50.0,87,40,3.44,ca,1655105699
7,new norfolk,-42.7826,147.0587,46.71,82,23,1.01,au,1655105700
8,adrar,20.5022,-10.0711,90.61,28,15,7.47,dz,1655105702
9,geraldton,-28.7667,114.6,66.61,59,100,11.5,au,1655105478
10,hermanus,-34.4187,19.2345,61.81,83,100,12.19,za,1655105704
11,jiazi,22.8779,116.067,83.52,81,100,15.35,cn,1655105705
12,carnarvon,-24.8667,113.6333,71.01,50,0,13.31,au,1655105584
13,dicabisagan,17.0818,122.4157,88.63,66,94,12.44,ph,1655105707
14,palmer,42.1584,-72.3287,66.24,87,100,0.0,us,1655105709
15,albany,42.6001,-73.9662,65.39,93,100,2.53,au,1655105615
16,sechura,-5.5569,-80.8222,63.3,82,78,8.48,pe,1655105711
17,vaini,-21.2,-175.2,77.16,94,75,4.61,to,1655105712
18,albany,42.6001,-73.9662,65.39,93,100,2.53,au,1655105615
19,merauke,-8.4667,140.3333,79.86,85,97,17.09,id,1655105714
20,torbay,47.6666,-52.7314,42.89,90,40,6.91,ca,1655105715
21,mataura,-46.1927,168.8643,46.47,88,78,10.63,pf,1655105717
22,cabo san lucas,22.8909,-109.9124,83.61,71,8,10.96,mx,1655105494
23,hilo,19.7297,-155.09,78.28,85,0,8.05,us,1655105692
24,mataura,-46.1927,168.8643,46.47,88,78,10.63,pf,1655105717
25,ushuaia,-54.8,-68.3,35.26,100,40,2.3,ar,1655105714
26,kapaa,22.0752,-159.319,78.78,86,75,17.27,us,1655105722
27,punta arenas,-53.15,-70.9167,42.91,93,75,2.3,cl,1655105700
28,waingapu,-9.6567,120.2641,82.44,65,29,14.67,id,1655105724
29,mataura,-46.1927,168.8643,46.47,88,78,10.63,pf,1655105717
30,camana,-16.6228,-72.7111,59.67,86,63,5.19,pe,1655105726
31,dikson,73.5069,80.5464,30.22,90,100,17.0,ru,1655105728
32,sao joao da barra,-21.6403,-41.0511,65.48,64,100,19.17,br,1655105729
33,ouallam,14.3188,2.0866,92.39,38,62,14.09,ne,1655105731
34,ushuaia,-54.8,-68.3,35.26,100,40,2.3,ar,1655105714
35,busselton,-33.65,115.3333,61.52,71,90,14.18,au,1655105733
36,auki,-8.7676,160.7034,77.74,87,74,4.74,sb,1655105734
37,ponta do sol,32.6667,-17.1,69.01,75,46,1.48,cv,1655105736
38,busselton,-33.65,115.3333,61.52,71,90,14.18,au,1655105733
39,ugoofaaru,5.6667,73.0,83.08,77,100,9.62,mv,1655105738
40,saint george,37.1041,-113.5841,90.19,9,0,14.97,bm,1655105739
41,hithadhoo,-0.6,73.0833,84.06,71,27,7.67,mv,1655105740
42,george,-33.963,22.4617,60.35,51,0,2.3,za,1655105742
43,ust-tsilma,65.441,52.1498,67.96,26,94,1.7,ru,1655105743
44,baykit,61.67,96.37,63.64,81,100,8.01,ru,1655105744
45,bluff,-46.6,168.3333,46.8,63,80,27.36,nz,1655105746
46,vardo,70.3705,31.1107,46.38,71,75,16.11,no,1655105747
47,vredendal,-31.6683,18.5012,62.19,51,100,4.63,za,1655105748
48,japura,-0.3167,102.35,81.25,91,91,0.56,br,1655105750
49,kodiak,57.79,-152.4072,56.71,62,0,5.75,us,1655105752
50,sao filipe,14.8961,-24.4956,72.79,81,21,6.17,cv,1655105754
51,port alfred,-33.5906,26.891,72.18,42,100,4.0,za,1655105450
52,mataura,-46.1927,168.8643,46.47,88,78,10.63,pf,1655105717
53,barrow,71.2906,-156.7887,26.62,93,100,6.91,us,1655105757
54,ostrovnoy,68.0531,39.5131,52.54,84,100,4.79,ru,1655105759
55,saskylakh,71.9167,114.0833,70.88,24,0,8.77,ru,1655105761
56,carnarvon,-24.8667,113.6333,71.01,50,0,13.31,au,1655105584
57,katsuura,35.1333,140.3,66.72,69,100,13.56,jp,1655105763
58,te anau,-45.4167,167.7167,34.39,91,91,2.59,nz,1655105764
59,salalah,17.0151,54.0924,91.49,66,75,14.97,om,1655105766
60,vaini,-21.2,-175.2,77.16,94,75,4.61,to,1655105712
61,mataura,-46.1927,168.8643,46.47,88,78,10.63,pf,1655105717
62,thinadhoo,0.5333,72.9333,84.11,71,59,6.89,mv,1655105769
63,broome,42.2506,-75.833,63.36,90,0,3.44,au,1655105770
64,guerrero negro,27.9769,-114.0611,62.87,92,54,13.22,mx,1655105771
65,tuktoyaktuk,69.4541,-133.0374,32.47,89,100,6.91,ca,1655105772
66,burgeo,47.6167,-57.6152,50.99,89,78,7.61,ca,1655105774
67,bluff,-46.6,168.3333,46.8,63,80,27.36,nz,1655105746
68,nikolskoye,59.7035,30.7861,68.88,45,32,6.96,ru,1655105776
69,rikitea,-23.1203,-134.9692,73.09,66,62,12.33,pf,1655105777
70,butaritari,3.0707,172.7902,82.04,69,6,12.8,ki,1655105778
71,batagay-alyta,67.8006,130.4114,60.31,51,100,6.89,ru,1655105781
72,hithadhoo,-0.6,73.0833,84.06,71,27,7.67,mv,1655105740
73,faanui,-16.4833,-151.75,80.2,67,95,20.29,pf,1655105783
74,qaanaaq,77.484,-69.3632,22.95,69,0,4.63,gl,1655105784
75,hobart,-42.8794,147.3294,47.05,77,20,5.75,au,1655105785
76,menongue,-14.6585,17.691,66.97,39,20,7.56,ao,1655105786
77,daru,-9.0763,143.2092,78.49,91,23,16.8,pg,1655105789
78,bluff,-46.6,168.3333,46.8,63,80,27.36,nz,1655105746
79,port elizabeth,-33.918,25.5701,65.32,68,0,3.44,za,1655105791
80,huarmey,-10.0681,-78.1522,61.97,86,51,6.44,pe,1655105792
81,gidole,5.65,37.3667,66.51,54,37,5.53,et,1655105794
82,ushuaia,-54.8,-68.3,35.26,100,40,2.3,ar,1655105714
83,borborema,-21.6197,-49.0736,49.77,61,100,5.19,br,1655105797
84,naryan-mar,67.6713,53.087,62.82,33,85,10.18,ru,1655105798
85,bethel,41.3712,-73.414,66.9,96,20,1.01,us,1655105799
86,kapaa,22.0752,-159.319,78.78,86,75,17.27,us,1655105722
87,brownwood,31.7093,-98.9912,87.12,57,0,10.36,us,1655105802
88,saskylakh,71.9167,114.0833,70.88,24,0,8.77,ru,1655105761
89,atuona,-9.8,-139.0333,77.9,64,76,20.78,pf,1655105804
90,monywa,22.1167,95.1333,101.43,32,96,8.03,mm,1655105807
91,georgetown,5.4112,100.3354,91.33,70,20,10.36,sh,1655105534
92,rochester,43.1548,-77.6156,62.24,92,100,3.44,us,1655105148
93,nacala,-14.5428,40.6728,74.52,61,40,13.8,mz,1655105810
94,maniitsoq,65.4167,-52.9,34.21,76,62,16.08,gl,1655105811
95,atambua,-9.1061,124.8925,79.65,61,16,2.42,id,1655105812
96,the pas,53.8251,-101.2541,57.22,94,100,8.05,ca,1655105813
97,upernavik,72.7868,-56.1549,28.53,96,100,5.48,gl,1655105815
98,vaini,-21.2,-175.2,77.16,94,75,4.61,to,1655105712
99,itoman,26.1247,127.6694,86.38,92,75,20.71,jp,1655105817
100,bani,18.2833,-70.3333,79.86,82,99,7.65,do,1655105818
101,mar del plata,-38.0023,-57.5575,46.09,74,0,4.61,ar,1655105612
102,mataura,-46.1927,168.8643,46.47,88,78,10.63,pf,1655105717
103,iqaluit,63.7506,-68.5145,35.33,87,75,10.36,ca,1655105822
104,rikitea,-23.1203,-134.9692,73.09,66,62,12.33,pf,1655105777
105,vaini,-21.2,-175.2,77.16,94,75,4.61,to,1655105712
106,vohibinany,-17.35,49.0333,75.43,62,39,5.86,mg,1655105825
107,sarahan,31.5167,77.8,80.13,28,72,9.15,in,1655105826
108,ushuaia,-54.8,-68.3,35.26,100,40,2.3,ar,1655105714
109,husavik,66.0449,-17.3389,48.09,81,100,3.74,is,1655105828
110,hobart,-42.8794,147.3294,47.05,77,20,5.75,au,1655105785
111,mahebourg,-20.4081,57.7,76.24,69,75,18.41,mu,1655105831
112,fairbanks,64.8378,-147.7164,60.76,62,0,3.44,us,1655105832
113,presidencia roque saenz pena,-26.7852,-60.4388,41.31,69,0,5.59,ar,1655105833
114,cape town,-33.9258,18.4232,58.26,94,75,12.66,za,1655105612
115,emba,48.8264,58.1442,68.31,34,0,13.6,kz,1655105836
116,lavrentiya,65.5833,-171.0,39.52,70,100,8.01,ru,1655105838
117,harlingen,26.1906,-97.6961,82.31,93,100,16.11,nl,1655105839
118,kahului,20.8947,-156.47,76.84,87,40,13.8,us,1655105840
119,albany,42.6001,-73.9662,65.39,93,100,2.53,au,1655105615
120,talnakh,69.4865,88.3972,72.25,37,23,1.83,ru,1655105842
121,kudahuvadhoo,2.6708,72.8944,83.64,71,93,8.25,mv,1655105843
122,barrow,71.2906,-156.7887,26.62,93,100,6.91,us,1655105757
123,severo-kurilsk,50.6789,156.125,43.66,89,67,10.29,ru,1655105846
124,cidreira,-30.1811,-50.2056,51.1,76,100,14.09,br,1655105847
125,punta arenas,-53.15,-70.9167,42.91,93,75,2.3,cl,1655105700
126,hofn,64.2539,-15.2082,48.2,90,100,7.18,is,1655105849
127,jamestown,42.097,-79.2353,60.39,66,3,1.54,sh,1655105602
128,poum,-20.2333,164.0167,75.79,84,100,16.67,nc,1655105852
129,qui nhon,13.7667,109.2333,86.72,71,100,14.18,vn,1655105711
130,hobart,-42.8794,147.3294,47.05,77,20,5.75,au,1655105785
131,chicama,-7.8447,-79.1469,57.74,89,68,3.85,pe,1655105856
132,launceston,-41.45,147.1667,44.24,70,8,6.91,au,1655105857
133,georgetown,5.4112,100.3354,91.33,70,20,10.36,sh,1655105534
134,new norfolk,-42.7826,147.0587,46.71,82,23,1.01,au,1655105700
135,longyearbyen,78.2186,15.6401,39.04,87,75,4.61,sj,1655105860
136,praia,14.9215,-23.5087,73.94,78,75,13.8,cv,1655105862
137,vaini,-21.2,-175.2,77.16,94,75,4.61,to,1655105712
138,carballo,43.213,-8.691,70.56,82,80,9.17,es,1655105864
139,kaitangata,-46.2817,169.8464,45.45,78,90,16.13,nz,1655105865
140,souillac,-20.5167,57.5167,75.58,69,75,18.41,mu,1655105866
141,pimentel,-6.8367,-79.9342,62.51,84,98,8.68,pe,1655105868
142,darhan,49.4867,105.9228,83.43,21,80,3.58,mn,1655105856
143,kaitangata,-46.2817,169.8464,45.45,78,90,16.13,nz,1655105865
144,busselton,-33.65,115.3333,61.52,71,90,14.18,au,1655105733
145,hermanus,-34.4187,19.2345,61.81,83,100,12.19,za,1655105704
146,ardakan,32.31,54.0175,98.28,10,0,3.2,ir,1655105875
147,ushuaia,-54.8,-68.3,35.26,100,40,2.3,ar,1655105714
148,mercedes,-34.6515,-59.4307,43.03,78,48,7.16,ar,1655105877
149,barrow,71.2906,-156.7887,26.62,93,100,6.91,us,1655105757
150,castro,-24.7911,-50.0119,36.16,80,0,2.46,cl,1655105880
151,shirokiy,49.758,129.523,70.77,76,100,9.42,ru,1655105882
152,xuddur,4.1213,43.8894,85.06,42,100,22.03,so,1655105884
153,marshall,34.3834,-86.3333,77.09,90,0,3.44,us,1655105838
154,kapaa,22.0752,-159.319,78.78,86,75,17.27,us,1655105722
155,vaini,-21.2,-175.2,77.16,94,75,4.61,to,1655105712
156,atuona,-9.8,-139.0333,77.9,64,76,20.78,pf,1655105804
157,bahadurganj,26.2667,87.8167,91.24,68,54,10.67,in,1655105890
158,broome,42.2506,-75.833,63.36,90,0,3.44,au,1655105770
159,colares,38.7992,-9.4469,71.89,74,75,8.99,pt,1655105892
160,san policarpo,12.1791,125.5072,84.78,69,63,7.14,ph,1655105894
161,nishihara,26.1842,127.7558,85.66,91,75,20.71,jp,1655105896
162,georgetown,5.4112,100.3354,91.33,70,20,10.36,sh,1655105534
163,ushuaia,-54.8,-68.3,35.26,100,40,2.3,ar,1655105714
164,bredasdorp,-34.5322,20.0403,59.77,70,100,3.58,za,1655105654
165,lashio,22.9333,97.75,77.4,88,100,3.6,mm,1655105900
166,los llanos de aridane,28.6585,-17.9182,65.95,92,75,2.3,es,1655105901
167,ribeira grande,38.5167,-28.7,63.0,77,40,12.66,pt,1655105904
168,rikitea,-23.1203,-134.9692,73.09,66,62,12.33,pf,1655105777
169,sisophon,13.5859,102.9737,95.94,44,100,2.17,kh,1655105907
170,albany,42.6001,-73.9662,65.39,93,100,2.53,au,1655105615
171,tura,25.5198,90.2201,80.42,89,100,6.31,ru,1655105911
172,cayenne,4.9333,-52.3333,74.08,1,20,0.0,gf,1655105912
173,port alfred,-33.5906,26.891,72.18,42,100,4.0,za,1655105450
174,shunyi,40.125,116.6453,73.35,68,20,6.71,cn,1655105915
175,victoria,22.2855,114.1577,87.85,82,84,18.99,sc,1655105817
176,port elizabeth,-33.918,25.5701,65.32,68,0,3.44,za,1655105791
177,puerto ayora,-0.7393,-90.3518,71.55,94,83,4.0,ec,1655105919
178,rikitea,-23.1203,-134.9692,73.09,66,62,12.33,pf,1655105777
179,mar del plata,-38.0023,-57.5575,46.09,74,0,4.61,ar,1655105612
180,la ronge,55.1001,-105.2842,55.65,88,75,3.44,ca,1655105922
181,saint-georges,12.0564,-61.7485,80.28,78,20,13.8,gf,1655105923
182,hamilton,39.1834,-84.5333,74.93,93,40,6.91,bm,1655105924
183,dikson,73.5069,80.5464,30.22,90,100,17.0,ru,1655105728
184,clyde river,70.4692,-68.5914,30.43,86,100,5.75,ca,1655105698
185,ballina,-28.8667,153.5667,60.01,88,78,6.49,au,1655105927
186,atuona,-9.8,-139.0333,77.9,64,76,20.78,pf,1655105804
187,thompson,55.7435,-97.8558,50.16,87,40,2.3,ca,1655105773
188,chokurdakh,70.6333,147.9167,70.95,21,7,7.63,ru,1655105931
189,thompson,55.7435,-97.8558,50.16,87,40,2.3,ca,1655105773
190,umm kaddadah,13.6017,26.6876,92.08,37,100,12.48,sd,1655105933
191,georgetown,5.4112,100.3354,91.33,70,20,10.36,sh,1655105534
192,ostrovnoy,68.0531,39.5131,52.54,84,100,4.79,ru,1655105759
193,port alfred,-33.5906,26.891,72.18,42,100,4.0,za,1655105450
194,punta arenas,-53.15,-70.9167,42.91,93,75,2.3,cl,1655105700
195,samarai,-10.6167,150.6667,82.8,75,73,12.28,pg,1655105939
196,vaini,-21.2,-175.2,77.16,94,75,4.61,to,1655105712
197,hilo,19.7297,-155.09,78.28,85,0,8.05,us,1655105692
198,norman wells,65.282,-126.8329,41.04,93,100,12.66,ca,1655105943
199,port keats,-14.25,129.55,85.24,22,100,5.26,au,1655105944
200,rikitea,-23.1203,-134.9692,73.09,66,62,12.33,pf,1655105777
201,ola,59.5833,151.2833,52.14,84,88,7.63,ru,1655105947
202,vostok,46.4856,135.8833,73.38,36,2,3.62,ru,1655105948
203,khatanga,71.9667,102.5,73.42,26,100,7.87,ru,1655105951
204,marystown,47.1666,-55.1483,51.85,100,33,6.8,ca,1655105952
205,puerto ayora,-0.7393,-90.3518,71.55,94,83,4.0,ec,1655105919
206,innisfail,-17.5333,146.0333,64.35,71,52,6.62,au,1655105954
207,cape town,-33.9258,18.4232,58.26,94,75,12.66,za,1655105612
208,grindavik,63.8424,-22.4338,50.47,100,100,12.66,is,1655105956
209,zyryanka,65.75,150.85,64.85,38,3,16.91,ru,1655105958
210,albany,42.6001,-73.9662,65.39,93,100,2.53,au,1655105615
211,barrow,71.2906,-156.7887,26.62,93,100,6.91,us,1655105757
212,busselton,-33.65,115.3333,61.52,71,90,14.18,au,1655105733
213,severo-kurilsk,50.6789,156.125,43.66,89,67,10.29,ru,1655105846
214,yellowknife,62.456,-114.3525,50.56,87,20,2.3,ca,1655105924
215,zamora,-4.0692,-78.9567,63.27,100,100,2.17,es,1655105735
216,limbach-oberfrohna,50.8667,12.75,62.44,74,94,9.28,de,1655105965
217,boende,-0.2167,20.8667,79.7,73,99,1.5,cd,1655105966
218,provideniya,64.3833,-173.3,41.05,68,99,2.75,ru,1655105967
219,hilo,19.7297,-155.09,78.28,85,0,8.05,us,1655105692
220,new norfolk,-42.7826,147.0587,46.71,82,23,1.01,au,1655105700
221,punta arenas,-53.15,-70.9167,42.91,93,75,2.3,cl,1655105700
222,tautira,-17.7333,-149.15,78.75,68,38,19.01,pf,1655105972
223,esqueda,30.7167,-109.5833,74.05,44,1,7.09,mx,1655105973
224,ketchikan,55.3422,-131.6461,48.67,87,100,0.0,us,1655105974
225,hovd,48.0056,91.6419,87.69,16,99,5.19,mn,1655105976
226,pevek,69.7008,170.3133,39.92,65,61,9.78,ru,1655105977
227,hobart,-42.8794,147.3294,47.05,77,20,5.75,au,1655105785
228,tuktoyaktuk,69.4541,-133.0374,32.47,89,100,6.91,ca,1655105772
229,tuktoyaktuk,69.4541,-133.0374,32.47,89,100,6.91,ca,1655105772
230,tuatapere,-46.1333,167.6833,43.84,79,93,15.05,nz,1655105981
231,soe,-9.8607,124.284,73.85,59,28,6.55,id,1655105982
232,airai,-8.9266,125.4092,65.3,75,78,3.24,pw,1655105984
233,corpus christi,27.8006,-97.3964,82.98,87,100,14.97,us,1655105757
234,vila velha,-20.3297,-40.2925,69.75,85,100,17.27,br,1655105712
235,te anau,-45.4167,167.7167,34.39,91,91,2.59,nz,1655105764
236,tiksi,71.6872,128.8694,45.88,63,53,7.49,ru,1655105989
237,axim,4.8699,-2.2405,79.56,72,97,4.27,gh,1655105991
238,port hardy,50.6996,-127.4199,50.0,87,40,3.44,ca,1655105699
239,mataura,-46.1927,168.8643,46.47,88,78,10.63,pf,1655105717
240,teknaf,20.8624,92.3058,87.55,67,73,7.94,bd,1655105994
241,haines junction,60.7522,-137.5108,46.35,71,100,1.14,ca,1655105995
242,okahandja,-21.9833,16.9167,62.02,39,0,14.07,na,1655105996
243,provideniya,64.3833,-173.3,41.05,68,99,2.75,ru,1655105967
244,meulaboh,4.1363,96.1285,84.69,68,98,6.33,id,1655106000
245,pacific grove,36.6177,-121.9166,58.01,86,100,17.0,us,1655106001
246,pisco,-13.7,-76.2167,60.85,88,100,3.44,pe,1655106002
247,nikolskoye,59.7035,30.7861,68.88,45,32,6.96,ru,1655105776
248,puerto ayora,-0.7393,-90.3518,71.55,94,83,4.0,ec,1655105919
249,castro,-24.7911,-50.0119,36.16,80,0,2.46,cl,1655105880
250,atuona,-9.8,-139.0333,77.9,64,76,20.78,pf,1655105804
251,srednekolymsk,67.45,153.6833,71.53,28,46,13.38,ru,1655106007
252,bontang,0.1333,117.5,82.45,71,100,3.94,id,1655106009
253,klaksvik,62.2266,-6.589,50.92,90,100,5.59,fo,1655106010
254,busselton,-33.65,115.3333,61.52,71,90,14.18,au,1655105733
255,rikitea,-23.1203,-134.9692,73.09,66,62,12.33,pf,1655105777
256,kapaa,22.0752,-159.319,78.78,86,75,17.27,us,1655105722
257,college,64.8569,-147.8028,60.75,62,100,3.44,us,1655106015
258,atuona,-9.8,-139.0333,77.9,64,76,20.78,pf,1655105804
259,ushuaia,-54.8,-68.3,35.26,100,40,2.3,ar,1655105714
260,atuona,-9.8,-139.0333,77.9,64,76,20.78,pf,1655105804
261,alta floresta,-9.8756,-56.0861,64.99,83,90,3.94,br,1655106019
262,rikitea,-23.1203,-134.9692,73.09,66,62,12.33,pf,1655105777
263,albany,42.6001,-73.9662,65.39,93,100,2.53,au,1655105615
264,mercedes,-34.6515,-59.4307,43.03,78,48,7.16,ar,1655105877
265,albany,42.6001,-73.9662,65.39,93,100,2.53,au,1655105615
266,hotaka,36.3396,137.8825,76.75,40,75,3.44,jp,1655106024
267,ushuaia,-54.8,-68.3,35.26,100,40,2.3,ar,1655105714
268,college,64.8569,-147.8028,60.75,62,100,3.44,us,1655106015
269,saint-philippe,-21.3585,55.7679,72.99,84,99,16.8,re,1655106030
270,ahuimanu,21.4447,-157.8378,78.51,79,75,17.27,us,1655106031
271,bandarbeyla,9.4942,50.8122,91.72,45,100,24.61,so,1655106032
272,codrington,-38.2667,141.9667,52.32,74,100,3.06,ag,1655106033
273,busselton,-33.65,115.3333,61.52,71,90,14.18,au,1655105733
274,talavera de la reina,39.9635,-4.8308,84.25,21,5,6.24,es,1655106036
275,lata,40.1629,-8.3327,83.48,46,7,2.13,sb,1655106037
276,olafsvik,64.8945,-23.7142,48.94,95,100,14.52,is,1655106038
277,somanda,-3.3667,33.95,76.55,47,55,11.97,tz,1655106040
278,dikson,73.5069,80.5464,30.22,90,100,17.0,ru,1655105728
279,mahebourg,-20.4081,57.7,76.24,69,75,18.41,mu,1655105831
280,bluff,-46.6,168.3333,46.8,63,80,27.36,nz,1655105746
281,hobart,-42.8794,147.3294,47.05,77,20,5.75,au,1655105785
282,saint-philippe,-21.3585,55.7679,72.99,84,99,16.8,re,1655106030
283,atuona,-9.8,-139.0333,77.9,64,76,20.78,pf,1655105804
284,atuona,-9.8,-139.0333,77.9,64,76,20.78,pf,1655105804
285,lagdo,9.05,13.7333,82.49,61,98,3.36,cm,1655106048
286,mataura,-46.1927,168.8643,46.47,88,78,10.63,pf,1655105717
287,qaanaaq,77.484,-69.3632,22.95,69,0,4.63,gl,1655105784
288,punta arenas,-53.15,-70.9167,42.91,93,75,2.3,cl,1655105700
289,pangnirtung,66.1451,-65.7125,26.44,89,74,2.55,ca,1655106054
290,namatanai,-3.6667,152.4333,80.65,75,95,7.7,pg,1655106056
291,bethel,41.3712,-73.414,66.9,96,20,1.01,us,1655105799
292,hobart,-42.8794,147.3294,47.05,77,20,5.75,au,1655105785
293,barrow,71.2906,-156.7887,26.62,93,100,6.91,us,1655105757
294,port alfred,-33.5906,26.891,72.18,42,100,4.0,za,1655105450
295,inirida,3.8653,-67.9239,70.16,99,100,0.89,co,1655106062
296,arraial do cabo,-22.9661,-42.0278,66.85,66,100,26.15,br,1655106064
297,rocha,-34.4833,-54.3333,42.4,89,64,2.08,uy,1655105906
298,butaritari,3.0707,172.7902,82.04,69,6,12.8,ki,1655105778
299,ballina,-28.8667,153.5667,60.01,88,78,6.49,au,1655105927
300,khatanga,71.9667,102.5,73.42,26,100,7.87,ru,1655105951
301,bluff,-46.6,168.3333,46.8,63,80,27.36,nz,1655105746
302,salalah,17.0151,54.0924,91.49,66,75,14.97,om,1655105766
303,havelock,34.8791,-76.9013,80.58,94,40,8.05,us,1655105859
304,busselton,-33.65,115.3333,61.52,71,90,14.18,au,1655105733
305,nyurba,63.2842,118.3319,64.71,46,90,7.72,ru,1655106073
306,tevriz,57.509,72.4042,64.33,73,93,10.22,ru,1655106075
307,mercedes,-34.6515,-59.4307,43.03,78,48,7.16,ar,1655105877
308,senanga,-16.1167,23.2667,68.29,38,0,6.73,zm,1655106078
309,puerto ayora,-0.7393,-90.3518,71.55,94,83,4.0,ec,1655105919
310,yueyang,29.3333,113.0919,84.63,57,98,5.73,cn,1655106080
311,punta arenas,-53.15,-70.9167,42.91,93,75,2.3,cl,1655105700
312,cape town,-33.9258,18.4232,58.26,94,75,12.66,za,1655105612
313,turkistan,43.0,68.0,91.27,20,2,5.77,kz,1655106083
314,puerto ayora,-0.7393,-90.3518,71.55,94,83,4.0,ec,1655105919
315,nikolskoye,59.7035,30.7861,68.88,45,32,6.96,ru,1655105776
316,rikitea,-23.1203,-134.9692,73.09,66,62,12.33,pf,1655105777
317,vaini,-21.2,-175.2,77.16,94,75,4.61,to,1655105712
318,mae hong son,19.3003,97.9685,89.74,55,75,4.61,th,1655105804
319,rikitea,-23.1203,-134.9692,73.09,66,62,12.33,pf,1655105777
320,chuy,-33.6971,-53.4616,45.01,96,17,4.61,uy,1655106090
321,rikitea,-23.1203,-134.9692,73.09,66,62,12.33,pf,1655105777
322,puerto ayora,-0.7393,-90.3518,71.55,94,83,4.0,ec,1655105919
323,kargasok,59.0556,80.8572,72.14,53,89,7.94,ru,1655106094
324,nhulunbuy,-12.2333,136.7667,79.41,69,100,11.5,au,1655106095
325,sturgis,41.7992,-85.4192,68.07,83,40,3.44,us,1655106096
326,mwense,-10.3845,28.698,73.56,37,1,5.14,zm,1655106097
327,rikitea,-23.1203,-134.9692,73.09,66,62,12.33,pf,1655105777
328,asheville,35.6009,-82.554,70.61,90,0,3.44,us,1655105452
329,rikitea,-23.1203,-134.9692,73.09,66,62,12.33,pf,1655105777
330,cordoba,-31.4135,-64.1811,58.19,58,0,8.05,ar,1655106101
331,ossora,59.2353,163.0719,47.7,77,91,1.3,ru,1655106103
332,saint-philippe,-21.3585,55.7679,72.99,84,99,16.8,re,1655106030
333,castro,-24.7911,-50.0119,36.16,80,0,2.46,cl,1655105880
334,dubai,25.2582,55.3047,102.49,44,0,18.41,ae,1655106106
335,hualmay,-11.0964,-77.6139,61.03,86,63,8.7,pe,1655106107
336,mar del plata,-38.0023,-57.5575,46.09,74,0,4.61,ar,1655105612
337,la ronge,55.1001,-105.2842,55.65,88,75,3.44,ca,1655105922
338,ginir,7.1333,40.7,70.32,54,100,7.02,et,1655106110
339,albany,42.6001,-73.9662,65.39,93,100,2.53,au,1655105615
340,tuktoyaktuk,69.4541,-133.0374,32.47,89,100,6.91,ca,1655105772
341,caravelas,-17.7125,-39.2481,68.81,93,100,3.65,br,1655106115
342,caravelas,-17.7125,-39.2481,68.81,93,100,3.65,br,1655106115
343,bengkulu,-3.8004,102.2655,83.91,65,100,6.04,id,1655106117
344,lianran,24.9227,102.485,61.34,81,100,6.62,cn,1655106118
345,bluff,-46.6,168.3333,46.8,63,80,27.36,nz,1655105746
346,ribeira grande,38.5167,-28.7,63.0,77,40,12.66,pt,1655105904
347,ushuaia,-54.8,-68.3,35.26,100,40,2.3,ar,1655105714
348,springbok,-29.6643,17.8865,57.33,40,100,11.48,za,1655106122
349,alenquer,-1.9417,-54.7383,71.67,96,92,3.02,br,1655106123
350,punta arenas,-53.15,-70.9167,42.91,93,75,2.3,cl,1655105700
351,lavrentiya,65.5833,-171.0,39.52,70,100,8.01,ru,1655105838
352,cap malheureux,-19.9842,57.6142,76.46,68,66,11.99,mu,1655106127
353,mbanza-ngungu,-5.25,14.8667,73.45,58,23,5.44,cd,1655106128
354,burley,42.5357,-113.7928,55.36,79,100,14.97,us,1655106129
355,vaini,-21.2,-175.2,77.16,94,75,4.61,to,1655105712
356,busselton,-33.65,115.3333,61.52,71,90,14.18,au,1655105733
357,falam,22.9167,93.6833,81.16,48,57,2.37,mm,1655106132
358,barrow,71.2906,-156.7887,26.62,93,100,6.91,us,1655105757
359,barrow,71.2906,-156.7887,26.62,93,100,6.91,us,1655105757
360,busselton,-33.65,115.3333,61.52,71,90,14.18,au,1655105733
361,kabinda,-6.1333,24.4833,80.31,39,100,4.9,cd,1655106137
362,bredasdorp,-34.5322,20.0403,59.77,70,100,3.58,za,1655105654
363,brae,60.3964,-1.353,51.04,94,100,16.08,gb,1655106139
364,soltepec,19.1167,-97.7,55.36,74,100,2.28,mx,1655106141
365,carnarvon,-24.8667,113.6333,71.01,50,0,13.31,au,1655105584
366,kapaa,22.0752,-159.319,78.78,86,75,17.27,us,1655105722
367,punta arenas,-53.15,-70.9167,42.91,93,75,2.3,cl,1655105700
368,chokurdakh,70.6333,147.9167,70.95,21,7,7.63,ru,1655105931
369,port hardy,50.6996,-127.4199,50.0,87,40,3.44,ca,1655105699
370,puro,12.4841,123.3827,87.55,62,99,3.02,ph,1655106149
371,piedecuesta,6.9879,-73.0495,65.64,91,84,3.13,co,1655105901
372,rikitea,-23.1203,-134.9692,73.09,66,62,12.33,pf,1655105777
373,butaritari,3.0707,172.7902,82.04,69,6,12.8,ki,1655105778
374,ponta delgada,37.7333,-25.6667,63.5,88,40,9.22,pt,1655106153
375,punta arenas,-53.15,-70.9167,42.91,93,75,2.3,cl,1655105700
376,mataura,-46.1927,168.8643,46.47,88,78,10.63,pf,1655105717
377,lebu,-37.6167,-73.65,46.98,87,38,10.56,cl,1655106156
378,tasiilaq,65.6145,-37.6368,35.76,100,100,2.98,gl,1655106158
379,namatanai,-3.6667,152.4333,80.65,75,95,7.7,pg,1655106056
380,alice springs,-23.7,133.8833,69.35,32,3,6.91,au,1655106160
381,ushuaia,-54.8,-68.3,35.26,100,40,2.3,ar,1655105714
382,codrington,-38.2667,141.9667,52.32,74,100,3.06,ag,1655106033
383,port hardy,50.6996,-127.4199,50.0,87,40,3.44,ca,1655105699
384,goderich,43.7501,-81.7165,55.9,93,6,3.44,sl,1655106164
385,bluff,-46.6,168.3333,46.8,63,80,27.36,nz,1655105746
386,pacific grove,36.6177,-121.9166,58.01,86,100,17.0,us,1655106001
387,hilo,19.7297,-155.09,78.28,85,0,8.05,us,1655105692
388,petropavlovsk-kamchatskiy,53.0452,158.6483,64.99,42,20,8.95,ru,1655106169
389,lata,40.1629,-8.3327,83.48,46,7,2.13,sb,1655106037
390,victoria,22.2855,114.1577,87.85,82,84,18.99,sc,1655105817
391,cidreira,-30.1811,-50.2056,51.1,76,100,14.09,br,1655105847
392,olafsvik,64.8945,-23.7142,48.94,95,100,14.52,is,1655106038
393,busselton,-33.65,115.3333,61.52,71,90,14.18,au,1655105733
394,new norfolk,-42.7826,147.0587,46.71,82,23,1.01,au,1655105700
395,solnechnyy,50.7214,136.6319,77.31,37,82,9.26,ru,1655106180
396,victoria,22.2855,114.1577,87.85,82,84,18.99,sc,1655105817
397,saint-philippe,-21.3585,55.7679,72.99,84,99,16.8,re,1655106030
398,diamantino,-14.4086,-56.4461,55.18,73,93,4.16,br,1655106183
399,ushuaia,-54.8,-68.3,35.26,100,40,2.3,ar,1655105714
400,luderitz,-26.6481,15.1594,62.74,61,100,14.0,na,1655106185
401,brattleboro,42.8509,-72.5579,67.33,95,100,1.99,us,1655106186
402,jining,35.405,116.5814,75.51,55,85,13.51,cn,1655106187
403,lebu,-37.6167,-73.65,46.98,87,38,10.56,cl,1655106156
404,touros,-5.1989,-35.4608,72.99,88,14,8.46,br,1655106190
405,constitucion,-35.3333,-72.4167,47.05,89,98,2.08,mx,1655106191
406,punta arenas,-53.15,-70.9167,42.91,93,75,2.3,cl,1655105700
407,chapais,49.7834,-74.8492,51.58,98,95,3.15,ca,1655106193
408,busselton,-33.65,115.3333,61.52,71,90,14.18,au,1655105733
409,bredasdorp,-34.5322,20.0403,59.77,70,100,3.58,za,1655105654
410,bluff,-46.6,168.3333,46.8,63,80,27.36,nz,1655105746
411,castro,-24.7911,-50.0119,36.16,80,0,2.46,cl,1655105880
412,arraial do cabo,-22.9661,-42.0278,66.85,66,100,26.15,br,1655106064
413,hermanus,-34.4187,19.2345,61.81,83,100,12.19,za,1655105704
414,nanortalik,60.1432,-45.2371,35.58,84,38,20.8,gl,1655106200
415,upernavik,72.7868,-56.1549,28.53,96,100,5.48,gl,1655105815
416,port alfred,-33.5906,26.891,72.18,42,100,4.0,za,1655105450
417,new norfolk,-42.7826,147.0587,46.71,82,23,1.01,au,1655105700
418,chuy,-33.6971,-53.4616,45.01,96,17,4.61,uy,1655106090
419,mataura,-46.1927,168.8643,46.47,88,78,10.63,pf,1655105717
420,provideniya,64.3833,-173.3,41.05,68,99,2.75,ru,1655105967
421,mar del plata,-38.0023,-57.5575,46.09,74,0,4.61,ar,1655105612
422,katsuura,35.1333,140.3,66.72,69,100,13.56,jp,1655105763
423,tommot,58.9564,126.2925,70.16,32,49,3.27,ru,1655106210
424,albany,42.6001,-73.9662,65.39,93,100,2.53,au,1655105615
425,san jose,37.3394,-121.895,59.31,76,0,1.01,bo,1655106162
426,port alfred,-33.5906,26.891,72.18,42,100,4.0,za,1655105450
427,albany,42.6001,-73.9662,65.39,93,100,2.53,au,1655105615
428,bluff,-46.6,168.3333,46.8,63,80,27.36,nz,1655105746
429,severnyy,50.677,36.5532,73.44,64,0,4.47,ru,1655106216
430,saint-jean-de-maurienne,45.1667,6.5833,61.25,60,1,7.23,fr,1655106217
431,naryan-mar,67.6713,53.087,62.82,33,85,10.18,ru,1655105798
432,atuona,-9.8,-139.0333,77.9,64,76,20.78,pf,1655105804
433,mogadishu,2.0371,45.3438,84.07,74,40,17.27,so,1655106060
434,hastings,50.8552,0.5729,61.99,68,10,8.93,nz,1655106223
435,otradnoye,59.7775,30.8181,67.95,45,28,7.31,ru,1655106225
436,oistins,13.0667,-59.5333,80.69,78,20,17.27,bb,1655106227
437,yellowknife,62.456,-114.3525,50.56,87,20,2.3,ca,1655105924
438,mount isa,-20.7333,139.5,71.37,20,6,6.91,au,1655106229
439,edirne,41.6772,26.556,78.8,60,4,13.73,tr,1655106230
440,punta arenas,-53.15,-70.9167,42.91,93,75,2.3,cl,1655105700
441,rikitea,-23.1203,-134.9692,73.09,66,62,12.33,pf,1655105777
442,gilgit,35.9221,74.3087,84.09,28,40,4.07,pk,1655106235
443,vaini,-21.2,-175.2,77.16,94,75,4.61,to,1655105712
444,axintele,44.6,26.7833,80.13,48,1,15.48,ro,1655106237
445,georgetown,5.4112,100.3354,91.33,70,20,10.36,sh,1655105534
446,xuddur,4.1213,43.8894,85.06,42,100,22.03,so,1655105884
447,port blair,11.6667,92.75,89.64,66,40,8.05,in,1655106241
448,kapaa,22.0752,-159.319,78.78,86,75,17.27,us,1655105722
449,kimbe,-5.5502,150.1429,78.31,86,67,0.54,pg,1655106243
450,aksu,41.1231,80.2644,97.34,7,91,7.63,cn,1655106244
451,sao filipe,14.8961,-24.4956,72.79,81,21,6.17,cv,1655105754
452,khatanga,71.9667,102.5,73.42,26,100,7.87,ru,1655105951
453,atuona,-9.8,-139.0333,77.9,64,76,20.78,pf,1655105804
454,nishihara,26.1842,127.7558,85.66,91,75,20.71,jp,1655105896
455,castro,-24.7911,-50.0119,36.16,80,0,2.46,cl,1655105880
456,grand gaube,-20.0064,57.6608,76.37,68,58,13.0,mu,1655106251
457,punta arenas,-53.15,-70.9167,42.91,93,75,2.3,cl,1655105700
458,east london,-33.0153,27.9116,76.14,29,0,19.57,za,1655106253
459,rikitea,-23.1203,-134.9692,73.09,66,62,12.33,pf,1655105777
460,cape town,-33.9258,18.4232,58.26,94,75,12.66,za,1655105612
461,beira,-19.8436,34.8389,69.89,88,20,8.05,mz,1655106256
462,port elizabeth,-33.918,25.5701,65.32,68,0,3.44,za,1655105791
463,rikitea,-23.1203,-134.9692,73.09,66,62,12.33,pf,1655105777
464,asau,46.4333,26.4,76.95,54,6,5.59,tv,1655106259
465,avarua,-21.2078,-159.775,75.25,73,20,8.05,ck,1655106262
466,ushuaia,-54.8,-68.3,35.26,100,40,2.3,ar,1655105714
467,salalah,17.0151,54.0924,91.49,66,75,14.97,om,1655105766
468,ushuaia,-54.8,-68.3,35.26,100,40,2.3,ar,1655105714
469,coquimbo,-29.9533,-71.3436,49.73,93,100,2.3,cl,1655106196
470,kathmandu,27.7167,85.3167,80.82,65,75,5.75,np,1655106045
471,cherskiy,68.75,161.3,69.31,28,74,8.19,ru,1655106269
472,bambous virieux,-20.3428,57.7575,76.21,69,75,18.41,mu,1655106270
473,ponta do sol,32.6667,-17.1,69.01,75,46,1.48,cv,1655105736
474,muriae,-21.1306,-42.3664,60.3,94,100,3.58,br,1655106272
475,bambous virieux,-20.3428,57.7575,76.21,69,75,18.41,mu,1655106270
476,mar del plata,-38.0023,-57.5575,46.09,74,0,4.61,ar,1655105612
477,mogadishu,2.0371,45.3438,84.07,74,40,17.27,so,1655106060
478,petropavlovsk-kamchatskiy,53.0452,158.6483,64.99,42,20,8.95,ru,1655106169
479,victoria,22.2855,114.1577,87.85,82,84,18.99,sc,1655105817
480,ushuaia,-54.8,-68.3,35.26,100,40,2.3,ar,1655105714
481,port elizabeth,-33.918,25.5701,65.32,68,0,3.44,za,1655105791
482,dali,25.7,100.1833,77.04,55,100,5.06,cn,1655106282
483,nikolskoye,59.7035,30.7861,68.88,45,32,6.96,ru,1655105776
484,jamestown,42.097,-79.2353,60.39,66,3,1.54,sh,1655105602
485,tucuma,-0.1833,-50.05,73.8,93,1,1.83,br,1655106285
486,corinto,37.9407,22.9573,79.41,60,65,8.3,ni,1655106286
487,tuatapere,-46.1333,167.6833,43.84,79,93,15.05,nz,1655105981
488,pacifica,37.6138,-122.4869,59.68,87,20,23.02,us,1655106048
489,mataura,-46.1927,168.8643,46.47,88,78,10.63,pf,1655105717
490,bluff,-46.6,168.3333,46.8,63,80,27.36,nz,1655105746
491,new norfolk,-42.7826,147.0587,46.71,82,23,1.01,au,1655105700
492,clyde river,70.4692,-68.5914,30.43,86,100,5.75,ca,1655105698
493,saint george,37.1041,-113.5841,90.19,9,0,14.97,bm,1655105739
494,hobart,-42.8794,147.3294,47.05,77,20,5.75,au,1655105785
495,marsaxlokk,35.8419,14.5431,79.41,50,0,9.22,mt,1655106298
496,ribeira grande,38.5167,-28.7,63.0,77,40,12.66,pt,1655105904
497,tianpeng,30.9866,103.9393,80.73,64,98,5.23,cn,1655106301
498,hermanus,-34.4187,19.2345,61.81,83,100,12.19,za,1655105704
499,punta arenas,-53.15,-70.9167,42.91,93,75,2.3,cl,1655105700
500,coahuayana,18.7333,-103.6833,77.81,82,73,3.38,mx,1655106304
501,albany,42.6001,-73.9662,66.38,93,100,2.53,au,1655106211
502,san cristobal,7.7669,-72.225,62.73,99,84,3.65,ec,1655106306
503,busselton,-33.65,115.3333,61.52,71,90,14.18,au,1655105733
504,fortuna,40.5982,-124.1573,55.65,86,100,9.22,us,1655106308
505,puerto escondido,15.85,-97.0667,77.52,85,100,2.06,mx,1655106310
506,la ronge,55.1001,-105.2842,55.65,88,75,3.44,ca,1655105922
507,kapaa,22.0752,-159.319,78.78,86,75,17.27,us,1655105722
508,rio brilhante,-21.8019,-54.5464,41.79,82,1,4.47,br,1655106313
509,bodden town,19.2833,-81.25,79.93,88,99,5.01,ky,1655106314
510,hambantota,6.1241,81.1185,95.34,52,20,11.5,lk,1655106315
511,arcata,40.8665,-124.0828,54.75,81,75,5.75,us,1655106317
512,mar del plata,-38.0023,-57.5575,46.09,74,0,4.61,ar,1655105612
513,belaya kholunitsa,58.84,50.8528,65.53,32,6,6.22,ru,1655106319
514,nikolskoye,59.7035,30.7861,68.88,45,32,6.96,ru,1655105776
515,bambous virieux,-20.3428,57.7575,76.21,69,75,18.41,mu,1655106270
516,zaragoza,41.6561,-0.8773,72.86,65,0,14.97,mx,1655106054
517,hay river,60.8156,-115.7999,51.78,82,20,2.3,ca,1655106323
518,alexandria,31.2156,29.9553,78.76,61,40,9.22,eg,1655106215
519,yeppoon,-23.1333,150.7333,65.98,55,0,3.94,au,1655106326
520,clyde river,70.4692,-68.5914,30.43,86,100,5.75,ca,1655106327
521,busselton,-33.65,115.3333,61.52,71,90,14.18,au,1655105733
522,nanortalik,60.1432,-45.2371,35.58,84,38,20.8,gl,1655106200
523,boddam,57.4667,-1.7833,56.43,69,75,13.71,gb,1655106331
524,vaini,-21.2,-175.2,77.16,94,75,4.61,to,1655106332
525,taoudenni,22.6783,-3.9836,93.83,27,94,5.35,ml,1655106333
526,punta arenas,-53.15,-70.9167,42.91,93,75,2.3,cl,1655106334
527,rocha,-34.4833,-54.3333,42.4,89,64,2.08,uy,1655105906
528,el dorado,38.7666,-120.5177,57.56,96,98,0.85,us,1655106101
529,yulara,-25.2406,130.9889,66.22,29,0,3.83,au,1655106338
530,yellowknife,62.456,-114.3525,50.56,87,20,2.3,ca,1655105924
531,kapchorwa,1.3965,34.4509,70.57,55,65,5.19,ug,1655106340
532,hobart,-42.8794,147.3294,47.05,77,20,5.75,au,1655105785
533,qaanaaq,77.484,-69.3632,22.95,69,0,4.63,gl,1655105784
534,yulara,-25.2406,130.9889,66.22,29,0,3.83,au,1655106338
535,maba,24.6841,113.5984,80.56,93,100,1.23,cn,1655106344
536,albany,42.6001,-73.9662,66.38,93,100,2.53,au,1655106211
537,busselton,-33.65,115.3333,61.52,71,90,14.18,au,1655106346
538,khatanga,71.9667,102.5,73.42,26,100,7.87,ru,1655105951
539,victoria,22.2855,114.1577,87.85,82,84,18.99,sc,1655105817
540,padang,-0.9492,100.3543,86.05,69,93,5.44,id,1655106351
541,kapaa,22.0752,-159.319,78.78,86,75,17.27,us,1655106352
542,busselton,-33.65,115.3333,61.52,71,90,14.18,au,1655106346
543,shakawe,-18.3667,21.85,67.03,39,0,6.71,bw,1655106356
544,aragats,40.4889,44.3528,62.17,60,0,7.25,am,1655106357
545,hofn,64.2539,-15.2082,48.2,90,100,7.18,is,1655105849
546,rikitea,-23.1203,-134.9692,73.09,66,62,12.33,pf,1655105777
547,stabat,3.761,98.4513,88.0,59,97,7.0,id,1655106361
548,mataura,-46.1927,168.8643,46.47,88,78,10.63,pf,1655106362
549,mataura,-46.1927,168.8643,46.47,88,78,10.63,pf,1655106362
550,ushuaia,-54.8,-68.3,35.26,100,40,2.3,ar,1655106190
551,jacareacanga,-6.2222,-57.7528,70.66,99,100,1.16,br,1655106367
552,pevek,69.7008,170.3133,39.92,65,61,9.78,ru,1655105977
553,tiksi,71.6872,128.8694,45.88,63,53,7.49,ru,1655105989
554,port alfred,-33.5906,26.891,74.17,40,100,4.0,za,1655106371
555,hilo,19.7297,-155.09,78.28,85,0,8.05,us,1655106372
556,saint-pierre,-21.3393,55.4781,73.9,78,75,29.93,pm,1655106374
557,namibe,-15.1961,12.1522,73.44,47,0,6.89,ao,1655106376
558,ushuaia,-54.8,-68.3,35.26,100,40,2.3,ar,1655106190
559,miramar,25.9873,-80.2323,82.42,87,0,3.44,mx,1655106378
560,cape town,-33.9258,18.4232,58.26,94,75,12.66,za,1655105612
561,ilulissat,69.2167,-51.1,30.22,93,100,5.75,gl,1655106380
562,saint-philippe,-21.3585,55.7679,72.99,84,99,16.8,re,1655106030
563,georgetown,5.4112,100.3354,91.33,70,20,10.36,sh,1655105534
564,mana,5.6592,-53.7767,73.29,94,48,4.76,gf,1655106383
565,havelock,34.8791,-76.9013,80.58,94,40,8.05,us,1655105859
566,port hardy,50.6996,-127.4199,50.0,87,40,3.44,ca,1655106386
567,abingdon,51.6711,-1.2828,62.02,72,20,6.91,gb,1655106387
568,yellowknife,62.456,-114.3525,50.56,87,20,2.3,ca,1655105924
569,suntar,62.1444,117.6319,67.98,38,80,8.34,ru,1655106389
570,rikitea,-23.1203,-134.9692,73.09,66,62,12.33,pf,1655106390
571,ushuaia,-54.8,-68.3,35.26,100,40,2.3,ar,1655106190
572,mataura,-46.1927,168.8643,46.47,88,78,10.63,pf,1655106362
573,busselton,-33.65,115.3333,61.52,71,90,14.18,au,1655106346
574,yeniseysk,58.4497,92.1703,82.33,33,53,10.76,ru,1655106394
575,cidreira,-30.1811,-50.2056,51.1,76,100,14.09,br,1655105847
576,kapaa,22.0752,-159.319,78.78,86,75,17.27,us,1655106352
577,mount gambier,-37.8333,140.7667,52.59,62,100,3.24,au,1655106398
578,gatton,-27.55,152.2833,58.14,89,2,1.74,au,1655106399
579,rikitea,-23.1203,-134.9692,73.09,66,62,12.33,pf,1655106390
580,saldanha,-33.0117,17.9442,55.45,89,100,19.64,za,1655106401
581,victoria,22.2855,114.1577,87.85,82,84,18.99,sc,1655105817
582,sembakung,3.8167,117.25,91.29,50,96,5.55,id,1655106403
583,vaini,-21.2,-175.2,77.16,94,75,4.61,to,1655106332
584,ushuaia,-54.8,-68.3,35.26,100,40,2.3,ar,1655106190
585,lasa,46.6166,10.7002,66.69,59,93,3.94,cn,1655106408
586,rikitea,-23.1203,-134.9692,73.09,66,62,12.33,pf,1655106390
587,leningradskiy,69.3833,178.4167,33.84,87,96,11.1,ru,1655106410
588,imbituba,-28.24,-48.6703,51.85,76,0,6.91,br,1655106411
589,hilo,19.7297,-155.09,78.28,85,0,8.05,us,1655106372
590,san quintin,30.4833,-115.95,62.04,89,93,9.82,mx,1655106413
591,barrow,71.2906,-156.7887,26.62,93,100,8.05,us,1655106415
592,sola,-13.8833,167.55,80.89,75,11,13.87,vu,1655106416
593,hof,50.3167,11.9167,67.46,61,0,9.22,no,1655106417
594,iqaluit,63.7506,-68.5145,35.33,87,75,10.36,ca,1655105822
595,hobart,-42.8794,147.3294,47.05,78,20,4.61,au,1655106303
596,talaya,61.3833,152.75,46.67,74,95,6.17,ru,1655106420
597,victoria,22.2855,114.1577,87.85,82,84,18.99,sc,1655105817
598,srandakan,-7.9386,110.2506,82.22,75,91,5.61,id,1655106422
599,georgetown,5.4112,100.3354,91.33,70,20,10.36,gy,1655106303
600,bredasdorp,-34.5322,20.0403,59.77,70,100,3.58,za,1655105654
601,punta arenas,-53.15,-70.9167,42.91,93,75,2.3,cl,1655106334
602,albany,42.6001,-73.9662,66.38,93,100,2.53,au,1655106211
603,manta,-0.95,-80.7333,71.38,88,100,6.91,ec,1655106428
604,thompson,55.7435,-97.8558,50.16,87,40,2.3,ca,1655105773
605,ivanteyevka,55.9711,37.9208,74.86,57,88,8.63,ru,1655106430
606,rikitea,-23.1203,-134.9692,73.09,66,62,12.33,pf,1655106390
607,mataura,-46.1927,168.8643,46.47,88,78,10.63,pf,1655106362
608,rikitea,-23.1203,-134.9692,73.09,66,62,12.33,pf,1655106390
609,saint-georges,12.0564,-61.7485,80.28,78,20,13.8,gf,1655105923
610,ushuaia,-54.8,-68.3,35.26,100,40,2.3,ar,1655106190
611,port alfred,-33.5906,26.891,74.17,40,100,4.0,za,1655106371
612,torrington,41.8007,-73.1212,66.04,97,100,1.01,us,1655106437
613,qaanaaq,77.484,-69.3632,22.95,69,0,4.63,gl,1655106439
614,alekseyevsk,57.8406,108.3492,77.14,34,100,8.5,ru,1655106440
615,bluff,-46.6,168.3333,46.8,63,80,27.36,nz,1655106441
616,ilulissat,69.2167,-51.1,30.22,93,100,5.75,gl,1655106380
617,viedma,-40.8135,-62.9967,51.73,52,100,14.16,ar,1655106444
618,sharjah,25.3573,55.4033,98.89,44,0,20.71,ae,1655106440
619,dali,25.7,100.1833,77.04,55,100,5.06,cn,1655106282
620,georgetown,5.4112,100.3354,91.33,70,20,10.36,sh,1655106303
621,vaini,-21.2,-175.2,77.16,94,75,4.61,to,1655106332
622,vega de alatorre,20.0333,-96.6333,79.75,69,100,9.26,mx,1655106450
623,butaritari,3.0707,172.7902,82.04,69,6,12.8,ki,1655106451
624,naze,28.3667,129.4833,77.92,81,97,22.41,jp,1655106452
625,saint-joseph,-21.3667,55.6167,71.98,82,81,16.69,re,1655106428
626,jimenez,28.3333,-105.4,83.91,24,12,6.78,mx,1655106455
627,busselton,-33.65,115.3333,61.52,71,90,14.18,au,1655106346
628,poirino,44.9208,7.8469,83.86,44,0,2.82,it,1655106459
629,malakal,9.5334,31.6605,92.5,36,94,9.57,sd,1655106460
630,punta arenas,-53.15,-70.9167,42.91,93,75,2.3,cl,1655106334
631,saint george,37.1041,-113.5841,90.19,9,0,14.97,bm,1655106462
632,bluff,-46.6,168.3333,46.8,63,80,27.36,nz,1655106441
633,bet shemesh,31.7496,34.9888,80.96,21,54,14.43,il,1655106464
634,shingu,33.7333,135.9833,69.44,77,100,5.7,jp,1655106466
635,esso,55.9333,158.7,42.26,99,100,2.73,ru,1655106468
636,ukiah,39.1502,-123.2078,53.17,85,30,5.48,us,1655106302
637,punta arenas,-53.15,-70.9167,42.91,93,75,2.3,cl,1655106334
638,mount gambier,-37.8333,140.7667,52.59,62,100,3.24,au,1655106398
639,hobart,-42.8794,147.3294,47.05,78,20,4.61,au,1655106303
640,komsomolskiy,40.4272,71.7189,79.52,38,100,0.0,ru,1655106473
641,cape town,-33.9258,18.4232,58.26,92,75,13.8,za,1655106415
642,vaini,-21.2,-175.2,77.16,94,75,4.61,to,1655106332
643,tual,-5.6667,132.75,80.91,82,100,22.57,id,1655106476
644,hithadhoo,-0.6,73.0833,84.06,71,27,7.67,mv,1655106478
645,nishihara,26.1842,127.7558,85.66,91,75,20.71,jp,1655105896
646,ushuaia,-54.8,-68.3,35.26,100,40,2.3,ar,1655106190
647,namibe,-15.1961,12.1522,73.44,47,0,6.89,ao,1655106376
648,albany,42.6001,-73.9662,66.38,93,100,2.53,au,1655106211
649,klaksvik,62.2266,-6.589,50.92,90,100,5.59,fo,1655106010
650,cape town,-33.9258,18.4232,58.26,92,75,13.8,za,1655106415
651,kruisfontein,-34.0033,24.7314,67.24,40,100,3.02,za,1655106487
652,albany,42.6001,-73.9662,66.38,93,100,2.53,au,1655106211
653,paso de los toros,-32.8167,-56.5167,42.06,76,54,3.53,uy,1655106489
654,port hedland,-20.3167,118.5667,84.25,26,0,8.05,au,1655106451
655,griffith,41.5284,-87.4237,61.29,80,100,5.75,au,1655106491
656,touros,-5.1989,-35.4608,72.99,88,14,8.46,br,1655106190
657,albany,42.6001,-73.9662,66.38,93,100,2.53,au,1655106211
658,felsotarkany,47.9667,20.4167,76.95,41,3,3.74,hu,1655106495
659,rikitea,-23.1203,-134.9692,73.09,66,62,12.33,pf,1655106390
660,mataura,-46.1927,168.8643,46.47,88,78,10.63,pf,1655106362
661,hirara,24.8,125.2833,88.07,79,75,21.85,jp,1655106498
662,dickinson,29.4608,-95.0513,83.03,88,0,10.36,us,1655106499
663,albany,42.6001,-73.9662,66.38,93,100,2.53,au,1655106211
664,castro,-24.7911,-50.0119,36.16,80,0,2.46,cl,1655106502
665,ilulissat,69.2167,-51.1,30.22,93,100,5.75,gl,1655106380
666,hermanus,-34.4187,19.2345,60.8,83,100,12.19,za,1655106504
667,castro,-24.7911,-50.0119,36.16,80,0,2.46,br,1655106502
668,puerto ayora,-0.7393,-90.3518,71.55,94,83,4.0,ec,1655105919
669,georgetown,5.4112,100.3354,91.33,70,20,10.36,sh,1655106303
670,kwekwe,-18.9281,29.8149,61.74,65,0,3.87,zw,1655106210
671,ushuaia,-54.8,-68.3,35.26,100,40,2.3,ar,1655106190
672,jamestown,42.097,-79.2353,60.39,66,3,1.01,sh,1655106511
673,ushuaia,-54.8,-68.3,35.26,100,40,2.3,ar,1655106190
674,avarua,-21.2078,-159.775,75.25,73,20,8.05,ck,1655106262
675,farafangana,-22.8167,47.8333,70.86,67,100,1.43,mg,1655106514
676,nishihara,26.1842,127.7558,85.66,89,75,20.71,jp,1655106515
677,kodiak,57.79,-152.4072,56.71,62,0,5.75,us,1655106516
678,hermanus,-34.4187,19.2345,60.8,83,100,12.19,za,1655106504
679,camacha,33.0833,-16.3333,63.82,68,40,3.44,pt,1655106519
680,souillac,-20.5167,57.5167,75.58,69,75,18.41,mu,1655106520
681,ushuaia,-54.8,-68.3,35.26,100,40,2.3,ar,1655106190
682,svetlaya,46.5389,138.3297,56.34,78,5,7.61,ru,1655106523
683,puerto ayora,-0.7393,-90.3518,71.55,94,83,5.01,ec,1655106525
684,hobart,-42.8794,147.3294,47.05,78,20,4.61,au,1655106303
685,rikitea,-23.1203,-134.9692,73.09,66,62,12.33,pf,1655106390
686,tongchuan,35.0806,109.0897,91.31,11,65,10.49,cn,1655106530
687,rikitea,-23.1203,-134.9692,73.09,66,62,12.33,pf,1655106390
688,caxambu,-21.9772,-44.9325,47.25,68,100,3.06,br,1655106532
689,kavieng,-2.5744,150.7967,82.67,72,35,12.12,pg,1655106533
690,tasiilaq,65.6145,-37.6368,35.76,100,100,2.98,gl,1655106158
691,ushuaia,-54.8,-68.3,35.26,100,40,2.3,ar,1655106190
692,rikitea,-23.1203,-134.9692,73.09,66,62,12.33,pf,1655106390
693,ambikapur,23.1167,83.2,94.05,33,95,6.98,in,1655106538
694,qaanaaq,77.484,-69.3632,22.95,69,0,4.63,gl,1655106439
695,tiksi,71.6872,128.8694,45.88,63,53,7.49,ru,1655105989
696,acarau,-2.8856,-40.12,73.83,89,52,8.21,br,1655106542
697,asau,46.4333,26.4,76.95,54,6,5.59,tv,1655106259
698,de-kastri,51.4667,140.7833,57.51,68,16,7.85,ru,1655106545
699,husavik,66.0449,-17.3389,48.09,81,100,3.74,is,1655106547
700,provideniya,64.3833,-173.3,41.05,68,99,2.75,ru,1655105967
701,kapaa,22.0752,-159.319,78.78,86,75,17.27,us,1655106352
702,hamilton,39.1834,-84.5333,74.77,93,75,6.91,bm,1655106550
703,mataura,-46.1927,168.8643,46.47,88,78,10.63,pf,1655106362
704,bismarck,46.8083,-100.7837,60.87,94,100,24.16,us,1655106389
705,ushuaia,-54.8,-68.3,35.26,100,40,2.3,ar,1655106190
706,katsuura,35.1333,140.3,66.72,69,100,13.56,jp,1655106554
707,mogadishu,2.0371,45.3438,84.07,74,40,17.27,so,1655106060
708,zhezkazgan,47.8043,67.7144,91.38,14,75,20.13,kz,1655106556
709,fernley,39.608,-119.2518,58.75,55,24,10.0,us,1655106558
710,sainte-maxime,43.3,6.6333,86.99,74,45,3.8,fr,1655106559
711,mataura,-46.1927,168.8643,46.47,88,78,10.63,pf,1655106362
712,mahebourg,-20.4081,57.7,77.25,69,75,18.41,mu,1655106561
713,georgetown,5.4112,100.3354,91.33,70,20,10.36,sh,1655106303
714,port alfred,-33.5906,26.891,74.17,40,100,4.0,za,1655106371
715,khatanga,71.9667,102.5,73.42,26,100,7.87,ru,1655106564
716,khatanga,71.9667,102.5,73.42,26,100,7.87,ru,1655106564
717,severo-kurilsk,50.6789,156.125,43.66,89,67,10.29,ru,1655106567
718,hanna,51.6334,-111.9018,46.85,91,96,5.01,ca,1655106568
719,cape town,-33.9258,18.4232,58.26,92,75,13.8,za,1655106415
720,leh,34.1667,77.5833,61.77,25,77,6.26,in,1655106570
721,souillac,-20.5167,57.5167,75.58,69,75,18.41,mu,1655106520
722,rikitea,-23.1203,-134.9692,73.09,66,62,12.33,pf,1655106390
723,yumen,40.2833,97.2,89.11,4,0,19.53,cn,1655106573
724,castro,-24.7911,-50.0119,36.16,80,0,2.46,cl,1655106502
725,novokizhinginsk,51.6115,109.5917,77.65,24,98,8.5,ru,1655106575
726,san patricio,28.017,-97.5169,82.85,85,3,13.15,mx,1655106577
727,bluff,-46.6,168.3333,46.8,63,80,27.36,nz,1655106441
728,vaini,-21.2,-175.2,77.16,94,75,4.61,to,1655106332
729,thompson,55.7435,-97.8558,50.16,87,40,2.3,ca,1655106530
730,bilma,18.6853,12.9164,99.21,13,97,21.07,ne,1655106582
731,hilo,19.7297,-155.09,78.28,85,0,8.05,us,1655106372
732,matara,5.9485,80.5353,85.37,70,99,13.22,lk,1655106584
733,ponta do sol,32.6667,-17.1,70.0,75,46,1.48,cv,1655106586
734,nanortalik,60.1432,-45.2371,35.58,84,38,20.8,gl,1655106200
735,fairbanks,64.8378,-147.7164,60.76,64,0,3.44,us,1655106588
736,kirakira,-10.4544,161.9205,79.79,83,36,8.39,sb,1655106589
737,bredasdorp,-34.5322,20.0403,59.77,70,100,3.58,za,1655106591
738,mahebourg,-20.4081,57.7,77.25,69,75,18.41,mu,1655106561
739,vaini,-21.2,-175.2,77.16,94,75,4.61,to,1655106332
740,arraial do cabo,-22.9661,-42.0278,66.85,66,100,26.15,br,1655106064
741,geraldton,-28.7667,114.6,66.61,59,100,11.5,au,1655106596
742,mataura,-46.1927,168.8643,46.47,88,78,10.63,pf,1655106362
743,tamandare,-8.7597,-35.1047,72.18,91,24,3.85,br,1655106598
744,nikolskoye,59.7035,30.7861,70.72,45,32,6.96,ru,1655106599
745,bredasdorp,-34.5322,20.0403,59.77,70,100,3.58,za,1655106591
746,port elizabeth,-33.918,25.5701,67.32,63,0,3.44,za,1655106601
747,porto santo,33.072,-16.3415,66.58,68,40,3.44,pt,1655106584
748,bredasdorp,-34.5322,20.0403,59.77,70,100,3.58,za,1655106591
749,pevek,69.7008,170.3133,39.92,65,61,9.78,ru,1655106605
750,carahue,-38.7,-73.1667,41.58,93,98,2.82,cl,1655106606
751,arraial do cabo,-22.9661,-42.0278,66.85,66,100,26.15,br,1655106064
752,east london,-33.0153,27.9116,76.14,29,0,19.57,za,1655106253
753,port alfred,-33.5906,26.891,74.17,40,100,4.0,za,1655106371
754,la crosse,43.8014,-91.2396,67.93,92,0,5.75,us,1655106506
755,namibe,-15.1961,12.1522,73.44,47,0,6.89,ao,1655106376
756,punta arenas,-53.15,-70.9167,42.91,93,75,2.3,cl,1655106334
757,kapaa,22.0752,-159.319,78.78,86,75,17.27,us,1655106352
758,butaritari,3.0707,172.7902,82.04,69,6,12.8,ki,1655106451
759,saint-pierre,-21.3393,55.4781,73.9,78,75,29.93,pm,1655106374
760,ushuaia,-54.8,-68.3,35.26,100,40,2.3,ar,1655106190
761,punta arenas,-53.15,-70.9167,42.91,93,75,2.3,cl,1655106334
762,ushuaia,-54.8,-68.3,35.26,100,40,2.3,ar,1655106190
763,hasaki,35.7333,140.8333,70.29,63,93,11.12,jp,1655106619
764,punta arenas,-53.15,-70.9167,42.91,93,75,2.3,cl,1655106334
765,gejiu,23.306,103.1635,70.47,69,100,4.32,cn,1655106621
766,broken hill,-31.95,141.4333,50.4,59,5,2.46,au,1655106623
767,villingen-schwenningen,48.0667,8.45,65.59,63,3,8.66,de,1655106624
768,vila franca do campo,37.7167,-25.4333,63.19,86,100,9.35,pt,1655106625
769,marondera,-18.1853,31.5519,60.8,43,0,2.48,zw,1655106626
770,punta arenas,-53.15,-70.9167,42.91,93,75,2.3,cl,1655106334
771,georgetown,5.4112,100.3354,91.33,70,20,10.36,sh,1655106303
772,funehiki,37.4333,140.5833,63.57,74,100,5.08,jp,1655106630
773,yellowknife,62.456,-114.3525,50.56,87,20,2.3,ca,1655106631
774,gornopravdinsk,60.05,69.9,51.39,96,100,6.98,ru,1655106632
775,chokurdakh,70.6333,147.9167,70.95,21,7,7.63,ru,1655106634
776,blyznyuky,48.8578,36.5551,71.08,73,97,5.91,ua,1655106635
777,hobart,-42.8794,147.3294,47.05,78,20,4.61,au,1655106303
778,lannion,48.75,-3.4167,60.75,77,75,8.05,fr,1655106637
779,new norfolk,-42.7826,147.0587,46.71,83,23,3.44,au,1655106638
780,lebu,-37.6167,-73.65,46.98,87,38,10.56,cl,1655106156
781,bhag,29.0415,67.8239,106.61,23,2,6.73,pk,1655106641
782,cabo san lucas,22.8909,-109.9124,82.62,71,8,10.96,mx,1655106416
783,shingu,33.7333,135.9833,69.44,77,100,5.7,jp,1655106466
784,albany,42.6001,-73.9662,66.38,93,100,2.53,au,1655106211
785,mattru,7.6244,-11.8332,75.33,94,73,0.92,sl,1655106645
786,hobart,-42.8794,147.3294,47.05,78,20,4.61,au,1655106303
787,beringovskiy,63.05,179.3167,43.12,72,95,5.95,ru,1655106648
788,mar del plata,-38.0023,-57.5575,45.09,75,0,4.61,ar,1655106470
789,hobart,-42.8794,147.3294,47.05,78,20,4.61,au,1655106303
790,chokurdakh,70.6333,147.9167,70.95,21,7,7.63,ru,1655106634
791,mataura,-46.1927,168.8643,46.47,88,78,10.63,pf,1655106362
792,tilichiki,60.4667,166.1,47.14,70,100,2.59,ru,1655106653
793,zhigansk,66.7697,123.3711,56.23,64,36,7.29,ru,1655106655
794,busselton,-33.65,115.3333,61.52,71,90,14.18,au,1655106346
795,dolores,-36.3132,-57.6792,42.42,60,97,6.49,ar,1655106658
796,qaanaaq,77.484,-69.3632,22.95,69,0,4.63,gl,1655106439
797,mataura,-46.1927,168.8643,46.47,88,78,10.63,pf,1655106362
798,ribeira grande,38.5167,-28.7,63.0,77,40,11.5,pt,1655106661
799,yellowknife,62.456,-114.3525,50.56,87,20,2.3,ca,1655106631
800,bredasdorp,-34.5322,20.0403,59.77,70,100,3.58,za,1655106591
801,ixtapa,20.7,-105.2,78.22,83,35,1.01,mx,1655106665
802,busselton,-33.65,115.3333,61.52,71,90,14.18,au,1655106346
803,albany,42.6001,-73.9662,66.38,93,100,2.53,au,1655106211
804,deputatskiy,69.3,139.9,66.0,27,2,15.75,ru,1655106668
805,mataura,-46.1927,168.8643,46.47,88,78,10.63,pf,1655106362
806,chuy,-33.6971,-53.4616,45.01,96,17,4.61,uy,1655106090
807,namibe,-15.1961,12.1522,73.44,47,0,6.89,ao,1655106376
808,tikrit,34.6071,43.6782,94.17,20,0,14.99,iq,1655106672
809,harper,4.375,-7.7169,78.87,72,95,7.78,lr,1655106674
810,puerto ayora,-0.7393,-90.3518,71.55,94,83,5.01,ec,1655106525
811,albany,42.6001,-73.9662,66.38,93,100,2.53,au,1655106211
812,hobart,-42.8794,147.3294,47.05,78,20,4.61,au,1655106303
813,nikolskoye,59.7035,30.7861,70.72,45,32,6.96,ru,1655106599
814,provideniya,64.3833,-173.3,41.05,68,99,2.75,ru,1655106679
815,leningradskiy,69.3833,178.4167,33.84,87,96,11.1,ru,1655106410
816,richards bay,-28.783,32.0377,67.55,37,7,8.21,za,1655106681
817,la palma,33.8464,-118.0467,68.61,86,100,6.91,pa,1655106682
818,dunedin,-45.8742,170.5036,44.8,65,20,21.0,nz,1655106683
819,kwekwe,-18.9281,29.8149,61.74,65,0,3.87,zw,1655106210
820,new norfolk,-42.7826,147.0587,46.71,83,23,3.44,au,1655106638
821,urambo,-5.0667,32.05,77.65,44,8,7.76,tz,1655106687
822,keita,14.7551,5.7749,91.94,37,31,14.16,ne,1655106689
823,tazovskiy,67.4667,78.7,62.82,65,96,16.98,ru,1655106690
824,rikitea,-23.1203,-134.9692,73.09,66,62,12.33,pf,1655106390
825,hilo,19.7297,-155.09,78.28,85,0,8.05,us,1655106372
826,charlestown,-32.95,151.6667,56.73,70,0,1.01,kn,1655106674
827,provideniya,64.3833,-173.3,41.05,68,99,2.75,ru,1655106679
828,hermanus,-34.4187,19.2345,60.8,83,100,12.19,za,1655106504
829,odienne,9.51,-7.5692,75.85,78,94,4.43,ci,1655106696
830,quatre cocos,-20.2078,57.7625,77.09,68,86,19.55,mu,1655106699
831,sao felix do xingu,-6.6447,-51.995,68.77,99,75,0.76,br,1655106700
832,mataura,-46.1927,168.8643,46.47,88,78,10.63,pf,1655106362
833,mosquera,4.7059,-74.2302,51.89,93,40,5.75,co,1655106702
834,palmerston,-12.486,130.9833,87.78,33,0,4.61,au,1655106704
835,mataura,-46.1927,168.8643,46.47,88,78,10.63,pf,1655106362
836,klichka,50.4457,117.996,66.81,59,100,7.63,ru,1655106710
837,burnie,-41.0667,145.9167,47.91,68,11,8.79,au,1655106711
838,padang,-0.9492,100.3543,86.05,69,93,5.44,id,1655106351
839,new norfolk,-42.7826,147.0587,46.71,83,23,3.44,au,1655106638
840,albany,42.6001,-73.9662,66.38,93,100,2.53,au,1655106211
841,busselton,-33.65,115.3333,61.52,71,90,14.18,au,1655106346
842,asau,46.4333,26.4,76.95,54,6,5.59,tv,1655106259
843,yarada,17.65,83.2667,97.12,52,20,8.05,in,1655106717
844,tuktoyaktuk,69.4541,-133.0374,32.47,89,100,6.91,ca,1655106719
845,atuona,-9.8,-139.0333,77.9,64,76,20.78,pf,1655106720
846,rikitea,-23.1203,-134.9692,73.09,66,62,12.33,pf,1655106390
847,bredasdorp,-34.5322,20.0403,59.77,70,100,3.58,za,1655106591
848,kapaa,22.0752,-159.319,78.78,86,75,17.27,us,1655106352
849,lebu,-37.6167,-73.65,46.98,87,38,10.56,cl,1655106156
850,dingle,10.9995,122.6711,87.57,66,21,5.88,ie,1655106725
851,barrow,71.2906,-156.7887,26.62,93,100,8.05,us,1655106415
852,ponta do sol,32.6667,-17.1,70.0,75,46,1.48,cv,1655106586
853,korla,41.7597,86.1469,97.81,6,8,2.53,cn,1655106728
854,butaritari,3.0707,172.7902,82.04,69,6,12.8,ki,1655106451
855,albany,42.6001,-73.9662,66.38,93,100,2.53,au,1655106211
856,airai,-8.9266,125.4092,65.3,75,78,3.24,pw,1655106731
857,jilin,43.0,126.0,68.95,74,100,13.4,cn,1655106733
858,qaanaaq,77.484,-69.3632,22.95,69,0,4.63,gl,1655106439
859,albany,42.6001,-73.9662,66.38,93,100,2.53,au,1655106211
860,great bend,38.3645,-98.7648,78.93,69,0,9.22,us,1655106736
861,olafsvik,64.8945,-23.7142,48.94,95,100,14.52,is,1655106737
862,colon,9.3592,-79.9014,78.15,84,100,4.52,pa,1655106739
863,san patricio,28.017,-97.5169,82.85,85,3,13.15,mx,1655106577
864,torbay,47.6666,-52.7314,42.28,90,40,6.91,ca,1655106743
865,tuatapere,-46.1333,167.6833,43.84,79,93,15.05,nz,1655106744
866,kailua,21.4022,-157.7394,78.78,82,75,11.5,us,1655106179
867,butaritari,3.0707,172.7902,82.04,69,6,12.8,ki,1655106451
868,saint-philippe,-21.3585,55.7679,72.99,84,99,16.8,re,1655106747
869,kapaa,22.0752,-159.319,78.78,86,75,17.27,us,1655106352
870,airai,-8.9266,125.4092,65.3,75,78,3.24,pw,1655106731
871,babushkin,51.7122,105.8647,58.37,67,100,1.95,ru,1655106751
872,hilo,19.7297,-155.09,78.28,85,0,8.05,us,1655106372
873,meulaboh,4.1363,96.1285,84.69,68,98,6.33,id,1655106753
874,srisailam,16.0833,78.8667,91.76,37,100,10.67,in,1655106754
875,verkhnevilyuysk,63.4453,120.3167,63.66,49,96,7.02,ru,1655106757
876,rikitea,-23.1203,-134.9692,73.09,66,62,12.33,pf,1655106390
877,tura,25.5198,90.2201,80.42,89,100,6.31,ru,1655106759
878,mataura,-46.1927,168.8643,46.47,88,78,10.63,pf,1655106362
879,deputatskiy,69.3,139.9,66.0,27,2,15.75,ru,1655106668
880,susanville,40.4163,-120.653,48.04,66,100,6.91,us,1655106736
881,cidreira,-30.1811,-50.2056,51.1,76,100,14.09,br,1655106764
882,port moresby,-9.4431,147.1797,81.82,83,40,11.5,pg,1655106606
883,isangel,-19.55,169.2667,77.65,86,44,1.5,vu,1655106766
884,dryden,49.7833,-92.7503,61.09,55,100,10.36,ca,1655106649
885,bambous virieux,-20.3428,57.7575,76.21,69,75,18.41,mu,1655106270
886,bluff,-46.6,168.3333,46.8,63,80,27.36,nz,1655106441
887,mataura,-46.1927,168.8643,46.47,88,78,10.63,pf,1655106362
888,butaritari,3.0707,172.7902,82.04,69,6,12.8,ki,1655106451
889,ribeira brava,32.65,-17.0667,70.0,76,48,1.83,pt,1655106776
890,bluff,-46.6,168.3333,46.8,63,80,27.36,nz,1655106441
891,cayenne,4.9333,-52.3333,74.08,1,20,0.0,gf,1655106778
892,cidreira,-30.1811,-50.2056,51.1,76,100,14.09,br,1655106764
893,saint-philippe,-21.3585,55.7679,72.99,84,99,16.8,re,1655106747
894,vaini,-21.2,-175.2,77.16,94,75,4.61,to,1655106332
895,naze,28.3667,129.4833,77.92,81,97,22.41,jp,1655106452
896,port alfred,-33.5906,26.891,74.17,40,100,4.0,za,1655106371
897,yellowknife,62.456,-114.3525,50.56,87,20,2.3,ca,1655106631
898,okhotsk,59.3833,143.3,43.3,92,100,5.88,ru,1655106786
899,puerto ayora,-0.7393,-90.3518,71.55,94,83,5.01,ec,1655106525
900,mvuma,-19.2792,30.5283,63.0,45,0,3.04,zw,1655106788
901,ketchikan,55.3422,-131.6461,47.89,87,84,2.37,us,1655106789
902,bairiki,1.3292,172.9752,80.6,78,20,10.36,ki,1655106791
903,lakatoro,-16.0999,167.4164,79.77,80,95,10.49,vu,1655106792
904,victoria,22.2855,114.1577,89.19,83,84,18.99,sc,1655106563
905,hithadhoo,-0.6,73.0833,84.06,71,27,7.67,mv,1655106478
906,alamosa,37.4695,-105.87,59.59,23,0,8.88,us,1655106795
907,kavieng,-2.5744,150.7967,82.67,72,35,12.12,pg,1655106533
908,nalut,30.3333,10.85,78.33,26,0,10.45,ly,1655106797
909,husavik,66.0449,-17.3389,48.09,81,100,3.74,is,1655106547
910,kaeo,-35.1,173.7833,54.32,80,47,15.41,nz,1655106800
911,prachuap khiri khan,12.2167,99.75,89.29,52,99,1.77,th,1655106802
912,cape town,-33.9258,18.4232,58.26,92,75,13.8,za,1655106415
913,barrow,71.2906,-156.7887,26.62,93,100,8.05,us,1655106415
914,san patricio,28.017,-97.5169,82.85,85,3,13.15,mx,1655106577
915,ust-tsilma,65.441,52.1498,67.96,26,94,1.7,ru,1655106808
916,lagoa,39.05,-27.9833,62.13,82,19,18.21,pt,1655106809
917,san carlos de bariloche,-41.1456,-71.3082,35.24,100,40,0.0,ar,1655106810
918,yellowknife,62.456,-114.3525,50.56,87,20,2.3,ca,1655106631
919,nouadhibou,20.931,-17.0347,66.18,94,40,25.32,mr,1655106813
920,new norfolk,-42.7826,147.0587,46.71,83,23,3.44,au,1655106638
921,severo-yeniseyskiy,60.3725,93.0408,71.62,41,68,10.25,ru,1655106815
922,avarua,-21.2078,-159.775,75.25,73,20,8.05,ck,1655106262
923,thinadhoo,0.5333,72.9333,84.11,71,59,6.89,mv,1655106778
924,zhigansk,66.7697,123.3711,56.23,64,36,7.29,ru,1655106655
925,faanui,-16.4833,-151.75,80.2,67,95,20.29,pf,1655106820
926,saskylakh,71.9167,114.0833,70.88,24,0,8.77,ru,1655106821
927,pachelma,53.2443,43.3521,67.05,49,2,4.74,ru,1655106822
928,mataura,-46.1927,168.8643,46.47,88,78,10.63,pf,1655106362
929,taldom,56.7333,37.5333,68.88,63,100,4.59,ru,1655106824
930,bethel,41.3712,-73.414,66.56,96,75,1.01,us,1655106826
931,esperance,-33.8667,121.9,61.27,77,100,33.6,au,1655106827
932,almaznyy,48.0448,40.045,78.98,43,0,10.85,ru,1655106828
933,rikitea,-23.1203,-134.9692,73.09,66,62,12.33,pf,1655106390
934,ushuaia,-54.8,-68.3,35.26,100,40,2.3,ar,1655106190
935,cape town,-33.9258,18.4232,58.26,92,75,13.8,za,1655106415
936,hithadhoo,-0.6,73.0833,84.06,71,27,7.67,mv,1655106478
937,vaini,-21.2,-175.2,77.16,94,75,4.61,to,1655106332
938,donskoye,45.4552,41.9741,80.73,36,95,13.4,ru,1655106837
939,avarua,-21.2078,-159.775,75.25,73,20,8.05,ck,1655106262
940,tual,-5.6667,132.75,80.91,82,100,22.57,id,1655106476
941,jamestown,42.097,-79.2353,60.39,66,3,1.01,sh,1655106511
942,plouzane,48.3833,-4.6167,59.32,77,20,10.36,fr,1655106841
943,torbay,47.6666,-52.7314,42.28,90,40,6.91,ca,1655106743
944,hermanus,-34.4187,19.2345,60.8,83,100,12.19,za,1655106504
945,estancia,-11.2683,-37.4383,70.32,96,24,2.21,br,1655106844
946,mount vernon,40.9126,-73.8371,69.42,87,87,3.09,us,1655106845
947,qaanaaq,77.484,-69.3632,22.95,69,0,4.63,gl,1655106439
948,khvoynaya,58.9,34.5333,64.94,74,100,5.23,ru,1655106849
949,sayyan,15.1718,44.3244,80.24,9,60,9.93,ye,1655106851
950,kyaikkami,16.08,97.5675,83.77,75,100,9.62,mm,1655106852
951,heze,35.2431,115.4411,82.89,34,100,10.18,cn,1655106854
952,phillaur,31.0292,75.7842,107.69,12,6,14.34,in,1655106855
953,naze,28.3667,129.4833,77.92,81,97,22.41,jp,1655106452
954,atuona,-9.8,-139.0333,77.9,64,76,20.78,pf,1655106720
955,dikson,73.5069,80.5464,30.22,90,100,17.0,ru,1655106859
956,hilo,19.7297,-155.09,78.28,85,0,8.05,us,1655106372
957,yar-sale,66.8333,70.8333,45.64,75,100,22.73,ru,1655106861
958,vaini,-21.2,-175.2,77.16,94,75,4.61,to,1655106332
959,nabire,-3.3667,135.4833,80.73,85,100,1.81,id,1655106863
960,rocha,-34.4833,-54.3333,42.4,89,64,2.08,uy,1655106864
961,rafai,4.95,23.9167,78.49,71,100,3.47,cf,1655106865
962,morondava,-20.2833,44.2833,81.7,39,0,6.22,mg,1655106867
963,mehamn,71.0357,27.8492,44.51,91,100,19.64,no,1655106868
964,sistranda,63.7256,8.834,53.56,86,100,24.61,no,1655106869
965,rikitea,-23.1203,-134.9692,73.09,66,62,12.33,pf,1655106390
966,mataura,-46.1927,168.8643,46.47,88,78,10.63,pf,1655106362
967,rosarito,32.3333,-117.0333,63.63,81,0,4.21,mx,1655106873
968,ribeira grande,38.5167,-28.7,63.0,77,40,11.5,pt,1655106661
969,punta arenas,-53.15,-70.9167,42.91,93,75,2.3,cl,1655106334
970,palo negro,10.1739,-67.5419,69.4,97,70,0.98,ve,1655106876
971,nome,64.5011,-165.4064,43.16,83,53,5.95,us,1655106877
972,ushuaia,-54.8,-68.3,35.26,100,40,2.3,ar,1655106190
973,labuhan,-6.8844,112.2051,84.74,72,100,8.03,id,1655106879
974,fort-shevchenko,44.5086,50.263,82.65,38,100,7.81,kz,1655106881
975,barrow,71.2906,-156.7887,26.62,93,100,8.05,us,1655106415
976,xining,36.6167,101.7667,71.83,17,0,3.02,cn,1655106883
977,faya,18.3851,42.4509,86.52,12,28,8.72,td,1655106884
978,cape town,-33.9258,18.4232,58.26,92,75,13.8,za,1655106415
979,port-gentil,-0.7193,8.7815,80.56,83,75,5.75,ga,1655106886
980,kodiak,57.79,-152.4072,56.71,62,0,5.75,us,1655106516
981,saskylakh,71.9167,114.0833,70.88,24,0,8.77,ru,1655106821
982,nguru,12.8791,10.4526,88.77,41,100,14.25,ng,1655106889
983,paita,-5.0892,-81.1144,63.01,82,95,10.47,pe,1655106892
984,bethel,41.3712,-73.414,66.56,96,75,1.01,us,1655106826
985,mataura,-46.1927,168.8643,46.47,88,78,10.63,pf,1655106362
986,tiksi,71.6872,128.8694,45.88,63,53,7.49,ru,1655106895
987,kaitangata,-46.2817,169.8464,45.45,78,90,16.13,nz,1655106896
988,nanortalik,60.1432,-45.2371,35.58,84,38,20.8,gl,1655106897
989,jamestown,42.097,-79.2353,60.39,66,3,1.01,sh,1655106511
990,barrow,71.2906,-156.7887,26.62,93,100,8.05,us,1655106415
991,ushuaia,-54.8,-68.3,35.26,100,40,2.3,ar,1655106190
992,saint-philippe,-21.3585,55.7679,72.99,84,99,16.8,re,1655106747
993,pochutla,15.7432,-96.4661,76.82,92,100,3.0,mx,1655106903
994,naze,28.3667,129.4833,77.92,81,97,22.41,jp,1655106452
995,atuona,-9.8,-139.0333,77.9,64,76,20.78,pf,1655106720
996,kardla,58.9978,22.7492,61.05,67,75,9.22,ee,1655106906
997,lewiston,44.1003,-70.2148,63.05,95,100,4.61,us,1655106669
998,saldanha,-33.0117,17.9442,55.45,89,100,19.64,za,1655106401
999,kaitangata,-46.2817,169.8464,45.45,78,90,16.13,nz,1655106896
1000,ambatofinandrahana,-20.55,46.8,58.8,73,67,10.47,mg,1655106910
1001,cape town,-33.9258,18.4232,58.26,92,75,13.8,za,1655106415
1002,bengkulu,-3.8004,102.2655,83.91,65,100,6.04,id,1655106869
1003,jamestown,42.097,-79.2353,60.39,66,3,1.01,sh,1655106511
1004,upernavik,72.7868,-56.1549,28.53,96,100,5.48,gl,1655106914
1005,bandarbeyla,9.4942,50.8122,91.72,45,100,24.61,so,1655106915
1006,albany,42.6001,-73.9662,65.17,93,100,2.53,au,1655106660
1007,atuona,-9.8,-139.0333,77.9,64,76,20.78,pf,1655106720
1008,taoudenni,22.6783,-3.9836,93.83,27,94,5.35,ml,1655106333
1009,port hedland,-20.3167,118.5667,84.25,26,0,8.05,au,1655106451
1010,yellowknife,62.456,-114.3525,50.56,87,20,2.3,ca,1655106631
1011,punta arenas,-53.15,-70.9167,42.91,93,75,2.3,cl,1655106334
1012,vaini,-21.2,-175.2,77.16,94,75,4.61,to,1655106332
1013,jamestown,42.097,-79.2353,60.39,66,3,1.01,sh,1655106511
1014,siavonga,-16.5382,28.7088,69.58,47,0,1.99,zm,1655106925
1015,tiksi,71.6872,128.8694,45.88,63,53,7.49,ru,1655106895
1016,kearney,40.6995,-99.0815,71.51,70,0,8.05,us,1655106339
1017,new norfolk,-42.7826,147.0587,46.71,83,23,3.44,au,1655106638
1018,black river,18.0264,-77.8487,78.39,79,100,8.93,jm,1655106930
1019,bluff,-46.6,168.3333,46.8,63,80,27.36,nz,1655106441
1020,rikitea,-23.1203,-134.9692,73.09,66,62,12.33,pf,1655106390
1021,hermanus,-34.4187,19.2345,60.8,83,100,12.19,za,1655106504
1022,provideniya,64.3833,-173.3,41.05,68,99,2.75,ru,1655106679
1023,souillac,-20.5167,57.5167,75.58,69,75,18.41,mu,1655106520
1024,la plata,-34.9215,-57.9545,49.01,77,12,5.79,ar,1655106936
1025,albany,42.6001,-73.9662,65.17,93,100,2.53,au,1655106660
1026,hobart,-42.8794,147.3294,47.05,78,20,4.61,au,1655106303
1027,dikson,73.5069,80.5464,30.22,90,100,17.0,ru,1655106859
1028,ribeira grande,38.5167,-28.7,63.0,77,40,11.5,pt,1655106661
1029,castro,-24.7911,-50.0119,36.16,80,0,2.46,cl,1655106502
1030,rikitea,-23.1203,-134.9692,73.09,66,62,12.33,pf,1655106390
1031,morwell,-38.2333,146.4,50.34,83,71,2.91,au,1655106944
1032,mahebourg,-20.4081,57.7,77.25,69,75,18.41,mu,1655106561
1033,norman wells,65.282,-126.8329,41.04,93,100,12.66,ca,1655106947
1034,thompson,55.7435,-97.8558,50.16,87,40,2.3,ca,1655106530
1035,mahebourg,-20.4081,57.7,77.25,69,75,18.41,mu,1655106561
1036,zaqatala,41.6336,46.6433,77.47,53,40,9.22,az,1655106952
1037,saint-augustin,51.226,-58.6502,45.72,85,21,2.33,ca,1655106723
1038,mitla,16.9167,-96.4,61.25,87,98,4.29,mx,1655106955
1039,gizo,-8.103,156.8419,83.16,64,67,5.79,sb,1655106956
1040,ushuaia,-54.8,-68.3,35.26,100,40,2.3,ar,1655106190
1041,yellowknife,62.456,-114.3525,50.56,87,20,2.3,ca,1655106631
1042,hilo,19.7297,-155.09,78.28,85,0,8.05,us,1655106372
1043,vaini,-21.2,-175.2,77.16,94,75,4.61,to,1655106960
1044,san juan,-31.5375,-68.5364,47.88,47,5,1.36,us,1655106962
1045,seoul,37.5683,126.9778,83.8,53,75,12.66,kr,1655106758
1046,rikitea,-23.1203,-134.9692,73.09,66,62,12.33,pf,1655106390
1047,ushuaia,-54.8,-68.3,35.26,100,40,2.3,ar,1655106820
1048,castro,-24.7911,-50.0119,36.16,80,0,2.46,cl,1655106502
1049,samarai,-10.6167,150.6667,82.8,75,73,12.28,pg,1655106968
1050,avarua,-21.2078,-159.775,75.25,73,20,8.05,ck,1655106970
1051,miastko,54.0028,16.9826,61.74,73,53,10.11,pl,1655106971
1052,saskylakh,71.9167,114.0833,70.88,24,0,8.77,ru,1655106821
1053,sinnamary,5.3833,-52.95,75.34,90,13,5.61,gf,1655106973
1054,hobart,-42.8794,147.3294,47.05,78,20,4.61,au,1655106303
1055,east london,-33.0153,27.9116,76.14,29,0,19.57,za,1655106715
1056,punta arenas,-53.15,-70.9167,42.91,93,75,2.3,cl,1655106976
1057,jamestown,42.097,-79.2353,60.39,66,3,1.01,sh,1655106511
1058,hilo,19.7297,-155.09,78.28,92,31,1.99,us,1655106979
1059,yeniseysk,58.4497,92.1703,82.33,33,53,10.76,ru,1655106394
1060,atuona,-9.8,-139.0333,77.9,64,76,20.78,pf,1655106720
1061,turtas,58.9417,69.1325,54.27,93,100,6.96,ru,1655106982
1062,upernavik,72.7868,-56.1549,28.53,96,100,5.48,gl,1655106914
1063,taoudenni,22.6783,-3.9836,93.83,27,94,5.35,ml,1655106985
1064,kruisfontein,-34.0033,24.7314,67.24,40,100,3.02,za,1655106487
1065,te anau,-45.4167,167.7167,34.39,91,91,2.59,nz,1655106987
1066,upernavik,72.7868,-56.1549,28.53,96,100,5.48,gl,1655106914
1067,mataura,-46.1927,168.8643,45.48,88,78,10.63,pf,1655106989
1068,ushuaia,-54.8,-68.3,35.26,100,40,2.3,ar,1655106820
1069,mataura,-46.1927,168.8643,45.48,88,78,10.63,pf,1655106989
1070,vaini,-21.2,-175.2,77.16,94,75,4.61,to,1655106960
1071,souillac,-20.5167,57.5167,75.58,69,75,18.41,mu,1655106520
1072,naze,28.3667,129.4833,77.92,81,97,22.41,jp,1655106452
1073,bafoulabe,13.8065,-10.8321,87.35,51,61,5.97,ml,1655106997
1074,nikolskoye,59.7035,30.7861,70.72,45,32,6.96,ru,1655106599
1075,henties bay,-22.116,14.2845,64.8,64,0,3.65,na,1655107000
1076,ushuaia,-54.8,-68.3,35.26,100,40,2.3,ar,1655106820
1077,busselton,-33.65,115.3333,61.52,71,90,14.18,au,1655107002
1078,goderich,43.7501,-81.7165,54.91,93,6,3.44,sl,1655107003
1079,geraldton,-28.7667,114.6,66.61,59,100,11.5,au,1655106596
1080,ushuaia,-54.8,-68.3,35.26,100,40,2.3,ar,1655106820
1081,atuona,-9.8,-139.0333,77.9,64,76,20.78,pf,1655106720
1082,mataura,-46.1927,168.8643,45.48,88,78,10.63,pf,1655106989
1083,avarua,-21.2078,-159.775,75.25,73,20,8.05,ck,1655106970
1084,puerto ayora,-0.7393,-90.3518,71.55,94,83,5.01,ec,1655106525
1085,christchurch,-43.5333,172.6333,48.4,67,40,19.57,nz,1655106879
1086,avarua,-21.2078,-159.775,75.25,73,20,8.05,ck,1655106970
1087,santa ana,33.7456,-117.8678,67.64,85,16,5.01,ec,1655107013
1088,mataura,-46.1927,168.8643,45.48,88,78,10.63,pf,1655106989
1089,barrow,71.2906,-156.7887,26.62,93,100,8.05,us,1655106415
1090,cape town,-33.9258,18.4232,58.26,92,75,13.8,za,1655106415
1091,comodoro rivadavia,-45.8667,-67.5,55.26,38,0,17.27,ar,1655107017
1092,northampton,40.8754,-75.2499,66.43,93,92,2.84,us,1655107018
1093,talara,-4.5772,-81.2719,64.04,81,32,12.77,pe,1655107019
1094,ponta do sol,32.6667,-17.1,70.0,75,46,1.48,cv,1655106586
1095,lavrentiya,65.5833,-171.0,39.52,70,100,8.01,ru,1655107021
1096,east london,-33.0153,27.9116,76.14,29,0,19.57,za,1655106715
1097,san patricio,28.017,-97.5169,82.85,85,3,13.15,mx,1655106577
1098,mao,39.8885,4.2658,82.96,47,20,3.44,td,1655107025
1099,hvolsvollur,63.7533,-20.2243,49.42,96,100,8.61,is,1655107026
1100,antofagasta,-23.65,-70.4,54.68,79,29,4.25,cl,1655106732
1101,punta arenas,-53.15,-70.9167,42.91,93,75,2.3,cl,1655106976
1102,atar,20.5169,-13.0499,94.42,12,0,3.0,mr,1655107029
1103,anstruther,56.2231,-2.7023,57.09,62,75,14.97,gb,1655107031
1104,lebu,-37.6167,-73.65,46.98,87,38,10.56,cl,1655107032
1105,mataura,-46.1927,168.8643,45.48,88,78,10.63,pf,1655106989
1106,ulety,51.3572,112.4849,75.25,26,100,6.26,ru,1655107034
1107,oriximina,-1.7656,-55.8661,72.36,96,100,2.3,br,1655107036
1108,hualmay,-11.0964,-77.6139,61.03,86,63,8.7,pe,1655107037
1109,busselton,-33.65,115.3333,61.52,71,90,14.18,au,1655107002
1110,lebu,-37.6167,-73.65,46.98,87,38,10.56,cl,1655107032
1111,hermanus,-34.4187,19.2345,60.8,83,100,12.19,za,1655106504
1112,katobu,-4.9408,122.5276,79.95,80,96,0.16,id,1655107041
1113,saskylakh,71.9167,114.0833,70.88,24,0,8.77,ru,1655106821
1114,tuktoyaktuk,69.4541,-133.0374,32.47,89,100,6.91,ca,1655106719
1115,qaanaaq,77.484,-69.3632,22.95,69,0,4.63,gl,1655107044
1116,mount gambier,-37.8333,140.7667,52.59,62,100,3.24,au,1655107046
1117,vostok,46.4856,135.8833,73.38,36,2,3.62,ru,1655107047
1118,saint george,37.1041,-113.5841,90.19,9,0,14.97,bm,1655106462
1119,salalah,17.0151,54.0924,90.3,66,5,12.17,om,1655107049
1120,masallatah,32.6167,14.0,76.24,51,0,19.17,ly,1655107050
1121,ancud,-41.8697,-73.8203,51.22,93,100,10.8,cl,1655107051
1122,mataura,-46.1927,168.8643,45.48,88,78,10.63,pf,1655106989
1123,nampula,-15.1165,39.2666,69.75,78,75,11.5,mz,1655107054
1124,bluff,-46.6,168.3333,45.81,63,80,27.36,nz,1655107055
1125,bredasdorp,-34.5322,20.0403,59.77,70,100,3.58,za,1655106591
1126,ponta do sol,32.6667,-17.1,70.0,75,46,1.48,cv,1655106586
1127,ponta do sol,32.6667,-17.1,70.0,75,46,1.48,pt,1655106586
1128,avarua,-21.2078,-159.775,75.25,73,20,8.05,ck,1655106970
1129,lagoa,39.05,-27.9833,62.13,82,19,18.21,pt,1655106809
1130,jamestown,42.097,-79.2353,60.39,66,3,1.01,sh,1655106511
1131,college,64.8569,-147.8028,58.98,64,0,0.0,us,1655107062
1132,san policarpo,12.1791,125.5072,84.78,69,63,7.14,ph,1655107063
1133,nabire,-3.3667,135.4833,80.73,85,100,1.81,id,1655106863
1134,yellowknife,62.456,-114.3525,50.56,87,20,2.3,ca,1655106631
1135,thompson,55.7435,-97.8558,50.16,87,40,2.3,ca,1655106530
1136,georgetown,5.4112,100.3354,91.33,70,20,10.36,sh,1655106996
1137,thompson,55.7435,-97.8558,50.16,87,40,2.3,ca,1655106530
1138,nikolskoye,59.7035,30.7861,70.72,45,32,6.96,ru,1655106599
1139,rawson,-43.3002,-65.1023,53.2,29,100,10.74,ar,1655107071
1140,busselton,-33.65,115.3333,61.52,71,90,14.18,au,1655107002
1141,tura,25.5198,90.2201,80.42,89,100,6.31,ru,1655106759
1142,castro,-24.7911,-50.0119,36.16,80,0,2.46,cl,1655106502
1143,khatanga,71.9667,102.5,73.42,26,100,7.87,ru,1655106564
1144,guerrero negro,27.9769,-114.0611,62.87,92,54,13.22,mx,1655107077
1145,faya,18.3851,42.4509,86.52,12,28,8.72,td,1655106884
1146,matamoros,25.5333,-103.25,76.77,42,32,4.56,mx,1655107079
1147,airai,-8.9266,125.4092,65.3,75,78,3.24,pw,1655106731
1148,tombouctou,20.0,-3.0,91.83,23,73,5.99,ml,1655107081
1149,avarua,-21.2078,-159.775,75.25,73,20,8.05,ck,1655106970
1150,hobart,-42.8794,147.3294,46.26,78,20,4.61,au,1655107084
1151,san quintin,30.4833,-115.95,62.04,89,93,9.82,mx,1655107085
1152,jieshi,22.8134,115.8257,83.19,81,100,16.67,cn,1655107086
1153,saskylakh,71.9167,114.0833,70.88,24,0,8.77,ru,1655106821
1154,alice springs,-23.7,133.8833,69.22,32,3,8.05,au,1655106916
1155,ushuaia,-54.8,-68.3,35.26,100,40,2.3,ar,1655106820
1156,albany,42.6001,-73.9662,65.17,93,100,2.53,au,1655106660
1157,carnarvon,-24.8667,113.6333,71.01,50,0,13.31,au,1655107091
1158,ponta do sol,32.6667,-17.1,70.0,75,46,1.48,cv,1655106586
1159,ushuaia,-54.8,-68.3,35.26,100,40,2.3,ar,1655106820
1160,ushuaia,-54.8,-68.3,35.26,100,40,2.3,ar,1655106820
1161,kawambwa,-9.7915,29.0791,69.69,40,4,5.64,zm,1655107095
1162,ushuaia,-54.8,-68.3,35.26,100,40,2.3,ar,1655106820
1163,dingle,10.9995,122.6711,87.57,66,21,5.88,ie,1655106725
1164,lokosovo,61.1333,74.8167,62.51,77,92,7.94,ru,1655107100
1165,esperance,-33.8667,121.9,61.27,77,100,33.6,au,1655106827
1166,dingtao,35.0683,115.5625,84.24,30,100,4.65,cn,1655107102
1167,punta arenas,-53.15,-70.9167,42.91,93,75,2.3,cl,1655106976
1168,meadow lake,34.8014,-106.5436,77.14,24,16,4.14,ca,1655107104
1169,fort nelson,58.8053,-122.7002,56.79,47,75,2.3,ca,1655107088
1170,tungor,53.3808,142.9564,69.35,54,9,8.84,ru,1655107106
1171,hermanus,-34.4187,19.2345,60.8,83,100,12.19,za,1655107107
1172,hue,16.4667,107.6,95.11,52,40,9.22,vn,1655106955
1173,saint anthony,45.0205,-93.218,70.25,87,100,3.0,ca,1655107110
1174,kaohsiung,22.6163,120.3133,89.69,75,75,9.22,tw,1655107112
1175,hermanus,-34.4187,19.2345,60.8,83,100,12.19,za,1655107107
1176,lavrentiya,65.5833,-171.0,39.52,70,100,8.01,ru,1655107021
1177,waipawa,-41.4122,175.5153,48.45,75,23,15.99,nz,1655107116
1178,albany,42.6001,-73.9662,65.17,93,100,2.53,au,1655106660
1179,komsomolskiy,40.4272,71.7189,79.52,38,100,0.0,ru,1655107119
1180,ilulissat,69.2167,-51.1,32.29,75,100,14.94,gl,1655107121
1181,georgetown,5.4112,100.3354,91.33,70,20,10.36,sh,1655106996
1182,elat,29.5581,34.9482,84.04,37,0,9.22,il,1655107123
1183,frontera,26.9333,-101.45,80.22,48,5,6.26,mx,1655107124
1184,kaitangata,-46.2817,169.8464,45.45,78,90,16.13,nz,1655106896
1185,jamestown,42.097,-79.2353,60.39,66,3,1.54,sh,1655107027
1186,revelganj,25.7833,84.6667,100.31,15,88,11.48,in,1655107127
1187,hay river,60.8156,-115.7999,51.78,82,20,2.3,ca,1655107085
1188,caravelas,-17.7125,-39.2481,68.81,93,100,3.65,br,1655107130
1189,tiksi,71.6872,128.8694,45.88,63,53,7.49,ru,1655106895
1190,vesyegonsk,58.664,37.2604,59.79,82,100,3.11,ru,1655107133
1191,khatanga,71.9667,102.5,73.42,26,100,7.87,ru,1655106564
1192,khatanga,71.9667,102.5,73.42,26,100,7.87,ru,1655106564
1193,balkhash,46.844,74.9804,83.01,26,0,11.18,kz,1655107136
1194,lata,40.1629,-8.3327,83.48,48,7,2.13,sb,1655107138
1195,airai,-8.9266,125.4092,65.3,75,78,3.24,pw,1655106731
1196,port alfred,-33.5906,26.891,74.17,40,100,4.0,za,1655107141
1197,lalibela,12.0333,39.0333,77.07,22,100,2.95,et,1655107142
1198,fort frances,48.5999,-93.4003,57.16,86,100,7.76,ca,1655107144
1199,avarua,-21.2078,-159.775,75.25,73,20,8.05,ck,1655106970
1200,ilulissat,69.2167,-51.1,32.29,75,100,14.94,gl,1655107121
1201,sidney,-33.8679,151.2073,55.63,67,0,0.0,us,1655106903
1202,la union,-5.4,-80.75,63.79,80,77,9.28,pe,1655107148
1203,rikitea,-23.1203,-134.9692,73.09,66,62,12.33,pf,1655107149
1204,busselton,-33.65,115.3333,61.52,71,90,14.18,au,1655107002
1205,mataura,-46.1927,168.8643,45.48,88,78,10.63,pf,1655106989
1206,rikitea,-23.1203,-134.9692,73.09,66,62,12.33,pf,1655107149
1207,marzuq,14.4,46.4667,96.12,9,100,7.38,ly,1655107154
1208,tuktoyaktuk,69.4541,-133.0374,32.47,89,100,6.91,ca,1655106719
1209,port elizabeth,-33.918,25.5701,67.32,63,0,3.44,za,1655106601
1210,fortuna,40.5982,-124.1573,54.66,86,100,9.22,us,1655107157
1211,angoche,-16.2325,39.9086,76.42,67,67,9.6,mz,1655107158
1212,beidao,34.5686,105.8933,88.61,12,1,12.33,cn,1655107159
1213,flinders,-34.5833,150.8552,54.18,71,4,1.99,au,1655107160
1214,huarmey,-10.0681,-78.1522,61.97,86,51,6.44,pe,1655107163
1215,rio gallegos,-51.6226,-69.2181,33.85,93,20,5.75,ar,1655107164
1216,imeni poliny osipenko,52.4201,136.4853,79.02,47,100,9.15,ru,1655107165
1217,rikitea,-23.1203,-134.9692,73.09,66,62,12.33,pf,1655107149
1218,egvekinot,66.3167,-179.1667,41.31,59,100,10.49,ru,1655107167
1219,carnarvon,-24.8667,113.6333,71.01,50,0,13.31,au,1655107091
1220,hilo,19.7297,-155.09,78.28,92,31,1.99,us,1655106979
1221,lorengau,-2.0226,147.2712,82.6,74,77,11.65,pg,1655107172
1222,kamenka,51.3223,42.7678,72.12,43,0,4.68,ru,1655107173
1223,portland,45.5234,-122.6762,52.03,87,100,8.01,au,1655107021
1224,neyshabur,36.2133,58.7958,86.18,22,0,3.13,ir,1655107175
1225,mataura,-46.1927,168.8643,45.48,88,78,10.63,pf,1655106989
1226,port alfred,-33.5906,26.891,74.17,40,100,4.0,za,1655107141
1227,norman wells,65.282,-126.8329,41.04,93,100,12.66,ca,1655106947
1228,goedereede,51.8175,3.9806,65.05,67,13,4.0,nl,1655107181
1229,marquette,46.5333,-87.6335,48.78,86,88,5.19,us,1655107182
1230,hasaki,35.7333,140.8333,70.29,63,93,11.12,jp,1655106619
1231,huarmey,-10.0681,-78.1522,61.97,86,51,6.44,pe,1655107163
1232,avarua,-21.2078,-159.775,75.25,73,20,8.05,ck,1655106970
1233,khatanga,71.9667,102.5,73.42,26,100,7.87,ru,1655107190
1234,ushuaia,-54.8,-68.3,35.26,100,40,2.3,ar,1655106820
1235,bengkulu,-3.8004,102.2655,83.91,65,100,6.04,id,1655106869
1236,kuantan,3.8077,103.326,89.71,70,20,3.44,my,1655107193
1237,bhuj,23.2667,69.6667,87.03,60,100,13.04,in,1655107194
1238,ambovombe,-25.1667,46.0833,72.16,45,0,4.81,mg,1655107196
1239,curaca,-8.9903,-39.9094,71.17,84,5,7.16,br,1655107197
1240,manokwari,-0.8667,134.0833,82.38,76,77,11.05,id,1655107198
1241,naze,28.3667,129.4833,77.92,81,97,22.41,jp,1655107199
1242,kaitangata,-46.2817,169.8464,45.45,78,90,16.13,nz,1655106896
1243,kabinda,-6.1333,24.4833,80.31,39,100,4.9,cd,1655107201
1244,cape town,-33.9258,18.4232,58.26,92,75,13.8,za,1655107149
1245,puerto ayora,-0.7393,-90.3518,71.55,94,83,5.01,ec,1655107204
1246,port lincoln,-34.7333,135.8667,57.67,65,78,12.44,au,1655107206
1247,mar del plata,-38.0023,-57.5575,45.09,75,0,4.61,ar,1655106470
1248,hithadhoo,-0.6,73.0833,84.06,71,27,7.67,mv,1655107208
1249,punta arenas,-53.15,-70.9167,42.91,93,75,2.3,cl,1655106976
1250,ostrovnoy,68.0531,39.5131,52.54,84,100,4.79,ru,1655107212
1251,kapaa,22.0752,-159.319,75.11,83,61,4.0,us,1655107225
1252,castro,-24.7911,-50.0119,36.16,80,0,2.46,cl,1655107232
1253,kapaa,22.0752,-159.319,75.11,83,61,4.0,us,1655107225
1254,port alfred,-33.5906,26.891,74.17,40,100,4.0,za,1655107141
1255,rikitea,-23.1203,-134.9692,73.09,66,62,12.33,pf,1655107149
1256,ovalle,-30.5983,-71.2003,53.2,78,94,2.21,cl,1655107238
1257,punta arenas,-53.15,-70.9167,42.91,93,75,2.3,cl,1655106976
1258,sur,22.5667,59.5289,95.11,48,0,10.04,om,1655107241
1259,ponta do sol,32.6667,-17.1,70.0,74,46,1.48,cv,1655107243
1260,sungaipenuh,-2.0833,101.3833,73.67,82,88,3.42,id,1655107249
1261,ushuaia,-54.8,-68.3,35.26,100,40,2.3,ar,1655106820
1262,rikitea,-23.1203,-134.9692,73.09,66,62,12.33,pf,1655107149
1263,padang,-0.9492,100.3543,86.05,69,93,5.44,id,1655107252
1264,port alfred,-33.5906,26.891,74.17,40,100,4.0,za,1655107141
1265,rio grande,-32.035,-52.0986,40.95,94,67,9.35,br,1655107254
1266,longyearbyen,78.2186,15.6401,40.84,81,75,4.61,sj,1655107257
1267,aban,56.67,96.06,79.81,42,80,9.24,ru,1655107258
1268,punta arenas,-53.15,-70.9167,42.91,93,75,2.3,cl,1655106976
1269,urubicha,-15.3833,-62.95,48.88,43,0,2.86,bo,1655107260
1270,kahului,20.8947,-156.47,74.84,95,3,8.99,us,1655107262
1271,saskylakh,71.9167,114.0833,70.88,24,0,8.77,ru,1655106821
1272,hobart,-42.8794,147.3294,46.26,78,20,4.61,au,1655107084
1273,puerto ayora,-0.7393,-90.3518,71.55,94,83,5.01,ec,1655107204
1274,saint anthony,45.0205,-93.218,70.25,87,100,3.0,ca,1655107110
1275,ilam,26.9167,87.9167,77.7,78,56,4.54,ir,1655107268
1276,avarua,-21.2078,-159.775,75.25,73,20,8.05,ck,1655106970
1277,deputatskiy,69.3,139.9,66.0,27,2,15.75,ru,1655107003
1278,vila velha,-20.3297,-40.2925,66.94,85,100,17.0,br,1655107271
1279,vale da amoreira,39.0697,-7.6985,81.79,30,0,10.47,pt,1655107272
1280,bluff,-46.6,168.3333,45.81,63,80,27.36,nz,1655107055
1281,cotonou,6.3654,2.4183,80.22,79,100,9.06,bj,1655107275
1282,sisimiut,66.9395,-53.6735,32.04,78,40,12.75,gl,1655107276
1283,bredasdorp,-34.5322,20.0403,59.77,70,100,3.58,za,1655107277
1284,ylivieska,64.0833,24.55,60.89,62,71,4.81,fi,1655107278
1285,thompson,55.7435,-97.8558,52.39,90,24,2.24,ca,1655107280
1286,san cristobal,7.7669,-72.225,62.73,99,84,3.65,ec,1655107197
1287,ushuaia,-54.8,-68.3,35.26,100,40,2.3,ar,1655106820
1288,ushuaia,-54.8,-68.3,35.26,100,40,2.3,ar,1655106820
1289,vaitape,-16.5167,-151.75,80.19,66,97,20.13,pf,1655107284
1290,kaeo,-35.1,173.7833,54.32,80,47,15.41,nz,1655106800
1291,poum,-20.2333,164.0167,75.79,84,100,16.67,nc,1655107286
1292,barrow,71.2906,-156.7887,26.62,93,100,8.05,us,1655107288
1293,airai,-8.9266,125.4092,65.3,75,78,3.24,pw,1655106731
1294,lucea,18.451,-78.1736,78.85,74,100,7.29,jm,1655107290
1295,hermanus,-34.4187,19.2345,60.8,83,100,12.19,za,1655107107
1296,punta arenas,-53.15,-70.9167,42.91,93,75,2.3,cl,1655106976
1297,georgetown,5.4112,100.3354,91.33,70,20,10.36,sh,1655106996
1298,berlevag,70.8578,29.0864,44.55,81,75,23.02,no,1655107294
1299,cidreira,-30.1811,-50.2056,51.1,76,100,14.09,br,1655106764
1300,east london,-33.0153,27.9116,76.14,29,0,19.57,za,1655106715
1301,vaini,-21.2,-175.2,77.16,94,75,4.61,to,1655106960
1302,saldanha,-33.0117,17.9442,59.23,89,100,19.64,za,1655107298
1303,punta arenas,-53.15,-70.9167,42.91,93,75,2.3,cl,1655106976
1304,rikitea,-23.1203,-134.9692,73.09,66,62,12.33,pf,1655107149
1305,puerto ayora,-0.7393,-90.3518,71.55,94,83,5.01,ec,1655107204
1306,kodiak,57.79,-152.4072,48.69,89,28,11.68,us,1655107303
1307,upernavik,72.7868,-56.1549,28.53,96,100,5.48,gl,1655106914
1308,leningradskiy,69.3833,178.4167,33.84,87,96,11.1,ru,1655107305
1309,albany,42.6001,-73.9662,65.17,93,100,2.53,au,1655106660
1310,khatanga,71.9667,102.5,73.42,26,100,7.87,ru,1655107190
1311,ushuaia,-54.8,-68.3,35.26,100,40,2.3,ar,1655106820
1312,gorontalo,0.5412,123.0595,81.7,86,100,2.3,id,1655107309
1313,punta arenas,-53.15,-70.9167,42.91,93,75,2.3,cl,1655106976
1314,kieta,-6.2167,155.6333,79.74,77,82,5.82,pg,1655107311
1315,clyde river,70.4692,-68.5914,29.57,88,76,3.02,ca,1655107313
1316,port hardy,50.6996,-127.4199,50.0,87,40,3.44,ca,1655107088
1317,tiksi,71.6872,128.8694,45.88,63,53,7.49,ru,1655106895
1318,agadez,19.75,10.25,95.11,15,0,18.23,ne,1655107316
1319,ewa beach,21.3156,-158.0072,78.17,71,100,17.0,us,1655106951
1320,kapaa,22.0752,-159.319,75.11,83,61,4.0,us,1655107225
1321,jamestown,42.097,-79.2353,60.39,66,3,1.54,sh,1655107027
1322,goderich,43.7501,-81.7165,54.91,93,6,3.44,sl,1655107003
1323,bredasdorp,-34.5322,20.0403,59.77,70,100,3.58,za,1655107277
1324,ushuaia,-54.8,-68.3,35.26,100,40,2.3,ar,1655106820
1325,luderitz,-26.6481,15.1594,62.74,61,100,14.0,na,1655107324
1326,souillac,-20.5167,57.5167,77.38,65,40,18.41,mu,1655107266
1327,hilo,19.7297,-155.09,78.28,92,31,1.99,us,1655106979
1328,rikitea,-23.1203,-134.9692,73.09,66,62,12.33,pf,1655107149
1329,nikolskoye,59.7035,30.7861,66.87,45,32,6.96,ru,1655107328
1330,riberalta,-10.9833,-66.1,56.88,80,48,2.8,bo,1655107330
1331,busselton,-33.65,115.3333,61.52,71,90,14.18,au,1655107002
1332,umm kaddadah,13.6017,26.6876,92.08,37,100,12.48,sd,1655107332
1333,kirakira,-10.4544,161.9205,79.79,83,36,8.39,sb,1655107333
1334,quatre cocos,-20.2078,57.7625,77.11,68,86,19.55,mu,1655107334
1335,bluff,-46.6,168.3333,45.81,63,80,27.36,nz,1655107055
1336,luangwa,-15.6167,30.4167,72.61,55,10,4.72,zm,1655107338
1337,damghan,36.1683,54.348,88.0,20,0,5.44,ir,1655107339
1338,vostok,46.4856,135.8833,73.38,36,2,3.62,ru,1655107047
1339,avarua,-21.2078,-159.775,75.25,73,20,8.05,ck,1655106970
1340,atuona,-9.8,-139.0333,77.9,64,76,20.78,pf,1655107344
1341,sekoma,-24.4,23.8833,61.5,35,0,11.25,bw,1655107345
1342,norman wells,65.282,-126.8329,41.04,93,100,12.66,ca,1655106947
1343,kruisfontein,-34.0033,24.7314,67.24,40,100,3.02,za,1655107348
1344,broken hill,-31.95,141.4333,50.4,59,5,2.46,au,1655107349
1345,nanortalik,60.1432,-45.2371,35.58,84,38,20.8,gl,1655106897
1346,airai,-8.9266,125.4092,65.3,75,78,3.24,pw,1655107351
1347,mildura,-34.2,142.15,51.08,76,63,3.18,au,1655107352
1348,cherskiy,68.75,161.3,69.31,28,74,8.19,ru,1655107354
1349,port keats,-14.25,129.55,85.24,22,100,5.26,au,1655107355
1350,dubbo,-32.25,148.6167,48.33,71,100,6.91,au,1655107356
1351,esperance,-33.8667,121.9,61.27,77,100,33.6,au,1655106827
1352,avarua,-21.2078,-159.775,75.25,73,20,8.05,ck,1655106970
1353,mathathane,-22.2687,28.7495,65.61,35,0,2.3,bw,1655107359
1354,rikitea,-23.1203,-134.9692,73.09,66,62,12.33,pf,1655107149
1355,gayny,60.3071,54.3241,64.09,29,3,8.61,ru,1655107361
1356,puerto ayora,-0.7393,-90.3518,71.55,94,83,5.01,ec,1655107204
1357,dikson,73.5069,80.5464,30.22,90,100,17.0,ru,1655106859
1358,flinders,-34.5833,150.8552,54.18,71,4,1.99,au,1655107160
1359,busselton,-33.65,115.3333,61.52,71,90,14.18,au,1655107002
1360,new norfolk,-42.7826,147.0587,45.9,84,23,1.99,au,1655107367
1361,hasaki,35.7333,140.8333,70.29,63,93,11.12,jp,1655107368
1362,rikitea,-23.1203,-134.9692,73.09,66,62,12.33,pf,1655107149
1363,towada,40.6127,141.2067,66.2,85,93,5.55,jp,1655107371
1364,tuktoyaktuk,69.4541,-133.0374,32.47,89,100,6.91,ca,1655107372
1365,mataura,-46.1927,168.8643,45.48,88,78,10.63,pf,1655106989
1366,sur,22.5667,59.5289,95.11,48,0,10.04,om,1655107241
1367,rikitea,-23.1203,-134.9692,73.09,66,62,12.33,pf,1655107149
1368,cape town,-33.9258,18.4232,58.26,92,75,13.8,za,1655107149
1369,rikitea,-23.1203,-134.9692,73.09,66,62,12.33,pf,1655107149
1370,port shepstone,-30.7414,30.455,69.73,36,0,4.61,za,1655107379
1371,hay river,60.8156,-115.7999,51.78,82,20,2.3,ca,1655107085
1372,iqaluit,63.7506,-68.5145,34.7,97,99,10.0,ca,1655107382
1373,dikson,73.5069,80.5464,30.22,90,100,17.0,ru,1655106859
1374,vaini,-21.2,-175.2,77.16,94,75,4.61,to,1655106960
1375,fortuna,40.5982,-124.1573,54.66,86,100,9.22,us,1655107157
1376,punta arenas,-53.15,-70.9167,42.91,93,75,2.3,cl,1655106976
1377,taoudenni,22.6783,-3.9836,93.83,27,94,5.35,ml,1655106985
1378,provideniya,64.3833,-173.3,41.05,68,99,2.75,ru,1655107389
1379,mangan,27.5167,88.5333,80.33,85,97,2.48,in,1655107390
1380,koratagere,13.5228,77.2331,86.99,42,96,11.27,in,1655107391
1381,carnarvon,-24.8667,113.6333,71.01,50,0,13.31,au,1655107091
1382,yellowknife,62.456,-114.3525,50.56,87,15,2.04,ca,1655107313
1383,vao,-22.6667,167.4833,71.35,74,100,12.75,nc,1655107395
1384,tuktoyaktuk,69.4541,-133.0374,32.47,89,100,6.91,ca,1655107372
1385,ushuaia,-54.8,-68.3,35.26,100,40,2.3,ar,1655106820
1386,sitka,57.0531,-135.33,49.89,81,100,3.44,us,1655107398
1387,morondava,-20.2833,44.2833,81.7,39,0,6.22,mg,1655106867
1388,carnarvon,-24.8667,113.6333,71.01,50,0,13.31,au,1655107091
1389,grindavik,63.8424,-22.4338,50.47,100,100,16.11,is,1655107401
1390,rikitea,-23.1203,-134.9692,73.09,66,62,12.33,pf,1655107149
1391,yulara,-25.2406,130.9889,66.22,29,0,3.83,au,1655107404
1392,avarua,-21.2078,-159.775,75.25,73,20,8.05,ck,1655106970
1393,salalah,17.0151,54.0924,90.3,66,5,12.17,om,1655107049
1394,yellowknife,62.456,-114.3525,50.56,87,15,2.04,ca,1655107313
1395,bluff,-46.6,168.3333,45.81,63,80,27.36,nz,1655107055
1396,vostok,46.4856,135.8833,73.38,36,2,3.62,ru,1655107047
1397,gigmoto,13.7796,124.39,84.76,76,85,6.49,ph,1655107411
1398,dickinson,29.4608,-95.0513,83.03,88,0,10.36,us,1655107412
1399,nabire,-3.3667,135.4833,80.73,85,100,1.81,id,1655106863
1400,ribeira grande,38.5167,-28.7,63.0,77,40,11.5,pt,1655107414
1401,mataura,-46.1927,168.8643,45.48,88,78,10.63,pf,1655106989
1402,itanhaem,-24.1831,-46.7889,54.0,73,10,4.25,br,1655107356
1403,ribeira grande,38.5167,-28.7,63.0,77,40,11.5,pt,1655107414
1404,sur,22.5667,59.5289,95.11,48,0,10.04,om,1655107241
1405,las cruces,32.3123,-106.7783,88.56,27,0,8.05,us,1655107420
1406,sinnamary,5.3833,-52.95,75.34,90,13,5.61,gf,1655106973
1407,elbistan,38.2059,37.1983,73.02,41,3,1.86,tr,1655107423
1408,waipawa,-41.4122,175.5153,48.45,75,23,15.99,nz,1655107116
1409,lavrentiya,65.5833,-171.0,39.52,70,100,8.01,ru,1655107021
1410,banda aceh,5.5577,95.3222,84.92,71,75,7.96,id,1655107427
1411,ushuaia,-54.8,-68.3,35.26,100,40,2.3,ar,1655106820
1412,cururupu,-1.8283,-44.8683,72.19,94,1,1.95,br,1655107429
1413,rikitea,-23.1203,-134.9692,73.09,66,62,12.33,pf,1655107149
1414,vaini,-21.2,-175.2,77.16,94,75,4.61,to,1655106960
1415,tazovskiy,67.4667,78.7,62.82,65,96,16.98,ru,1655107432
1416,mataura,-46.1927,168.8643,45.48,88,78,10.63,pf,1655106989
1417,hermanus,-34.4187,19.2345,60.8,83,100,12.19,za,1655107107
1418,bethel,41.3712,-73.414,66.9,96,75,0.0,us,1655107436
1419,cidreira,-30.1811,-50.2056,51.1,76,100,14.09,br,1655107438
1420,busselton,-33.65,115.3333,61.52,71,90,14.18,au,1655107002
1421,rawson,-43.3002,-65.1023,53.2,29,100,10.74,ar,1655107071
1422,ostrovnoy,68.0531,39.5131,52.54,84,100,4.79,ru,1655107212
1423,tezu,27.9167,96.1667,77.61,92,98,1.68,in,1655107442
1424,ushuaia,-54.8,-68.3,35.26,100,40,2.3,ar,1655106820
1425,provideniya,64.3833,-173.3,41.05,68,99,2.75,ru,1655107389
1426,punta arenas,-53.15,-70.9167,42.91,93,75,2.3,cl,1655106976
1427,barrow,71.2906,-156.7887,26.62,93,100,8.05,us,1655107288
1428,hami,42.8,93.45,100.78,4,0,2.35,cn,1655107450
1429,rikitea,-23.1203,-134.9692,73.09,66,62,12.33,pf,1655107149
1430,punta arenas,-53.15,-70.9167,42.91,93,75,2.3,cl,1655106976
1431,ushuaia,-54.8,-68.3,35.26,100,40,2.3,ar,1655106820
1432,senanga,-16.1167,23.2667,68.29,38,0,6.73,zm,1655107454
1433,albany,42.6001,-73.9662,65.17,93,100,2.53,au,1655106660
1434,port alfred,-33.5906,26.891,74.17,40,100,4.0,za,1655107141
1435,busselton,-33.65,115.3333,61.52,71,90,14.18,au,1655107002
1436,chegdomyn,51.1167,133.0167,75.31,50,100,6.76,ru,1655107458
1437,namibe,-15.1961,12.1522,73.44,47,0,6.89,ao,1655107460
1438,jamestown,42.097,-79.2353,60.39,66,3,1.54,sh,1655107027
1439,jamestown,42.097,-79.2353,60.39,66,3,1.54,sh,1655107027
1440,port elizabeth,-33.918,25.5701,71.31,49,0,3.0,za,1655107266
1441,nizwa,22.9333,57.5333,104.14,11,0,13.42,om,1655107464
1442,ushuaia,-54.8,-68.3,35.26,100,40,2.3,ar,1655106820
1443,punta arenas,-53.15,-70.9167,42.91,93,75,2.3,cl,1655106976
1444,ciudad bolivar,8.1222,-63.5497,72.86,93,100,8.59,ve,1655107467
1445,hermanus,-34.4187,19.2345,60.8,83,100,12.19,za,1655107107
1446,hermanus,-34.4187,19.2345,60.8,83,100,12.19,za,1655107107
1447,ushuaia,-54.8,-68.3,35.26,100,40,2.3,ar,1655106820
1448,sao geraldo do araguaia,-6.4006,-48.555,68.95,98,11,0.51,br,1655107472
1449,atuona,-9.8,-139.0333,77.9,64,76,20.78,pf,1655107344
1450,punta arenas,-53.15,-70.9167,42.91,93,75,2.3,cl,1655106976
1451,busselton,-33.65,115.3333,61.52,71,90,14.18,au,1655107002
1452,namtsy,62.7161,129.6658,61.3,58,59,6.29,ru,1655107477
1453,isilkul,54.9109,71.2728,69.6,57,42,8.48,ru,1655107478
1454,butaritari,3.0707,172.7902,82.04,69,6,12.8,ki,1655107479
1455,mwense,-10.3845,28.698,73.56,37,1,5.14,zm,1655107480
1456,carnarvon,-24.8667,113.6333,71.01,50,0,13.31,au,1655107091
1457,kovylkino,54.0388,43.9139,66.63,52,3,5.06,ru,1655107483
1458,klaksvik,62.2266,-6.589,49.12,90,100,5.59,fo,1655107484
1459,ilo,-17.6394,-71.3375,59.4,85,38,6.62,pe,1655107485
1460,rikitea,-23.1203,-134.9692,73.09,66,62,12.33,pf,1655107149
1461,bluff,-46.6,168.3333,45.81,63,80,27.36,nz,1655107055
1462,rikitea,-23.1203,-134.9692,73.09,66,62,12.33,pf,1655107149
1463,necochea,-38.5473,-58.7368,46.17,61,93,10.09,ar,1655107490
1464,cervo,43.6702,-7.4101,63.97,91,68,17.13,es,1655107491
1465,albany,42.6001,-73.9662,65.17,93,100,2.53,au,1655106660
1466,poya,-21.35,165.15,72.27,88,100,7.87,nc,1655107493
1467,constitucion,-35.3333,-72.4167,47.05,89,98,2.08,mx,1655107256
1468,georgetown,5.4112,100.3354,91.33,70,20,10.36,sh,1655106996
1469,arraial do cabo,-22.9661,-42.0278,66.85,66,100,26.15,br,1655107496
1470,albany,42.6001,-73.9662,65.17,93,100,2.53,au,1655106660
1471,hobart,-42.8794,147.3294,46.26,78,20,4.61,au,1655107084
1472,pitkyaranta,61.5734,31.4792,55.58,71,44,8.88,ru,1655107500
1473,ushuaia,-54.8,-68.3,35.26,100,40,2.3,ar,1655106820
1474,rikitea,-23.1203,-134.9692,73.09,66,62,12.33,pf,1655107149
1475,khatanga,71.9667,102.5,73.42,26,100,7.87,ru,1655107190
1476,thompson,55.7435,-97.8558,52.39,90,24,2.24,ca,1655107280
1477,provideniya,64.3833,-173.3,41.05,68,99,2.75,ru,1655107389
1478,port hedland,-20.3167,118.5667,84.25,26,0,8.05,au,1655107506
1479,liberal,37.0431,-100.921,86.14,25,0,18.41,us,1655107507
1480,bud,39.447,-86.1758,73.94,97,82,3.31,no,1655107508
1481,chokurdakh,70.6333,147.9167,70.95,21,7,7.63,ru,1655107510
1482,rikitea,-23.1203,-134.9692,73.09,66,62,12.33,pf,1655107149
1483,bredasdorp,-34.5322,20.0403,59.77,70,100,3.58,za,1655107277
1484,ushuaia,-54.8,-68.3,35.26,100,40,2.3,ar,1655106820
1485,carnarvon,-24.8667,113.6333,71.01,50,0,13.31,au,1655107091
1486,busselton,-33.65,115.3333,61.52,71,90,14.18,au,1655107002
1487,acarau,-2.8856,-40.12,73.83,89,52,8.21,br,1655107516
1488,hofn,64.2539,-15.2082,50.02,81,100,4.61,is,1655107271
1489,busselton,-33.65,115.3333,61.52,71,90,14.18,au,1655107002
1490,puerto ayora,-0.7393,-90.3518,71.55,94,83,5.01,ec,1655107204
1491,hillsborough,37.5741,-122.3794,59.02,82,20,18.41,gd,1655107522
1492,mataura,-46.1927,168.8643,45.48,88,78,10.63,pf,1655106989
1493,lashio,22.9333,97.75,77.4,88,100,3.6,mm,1655107525
1494,jiuquan,39.7432,98.5174,88.65,5,0,10.92,cn,1655107527
1495,arraial do cabo,-22.9661,-42.0278,66.85,66,100,26.15,br,1655107496
1496,joshimath,30.5667,79.5667,85.21,34,34,9.44,in,1655107529
1497,qaanaaq,77.484,-69.3632,22.95,69,0,4.63,gl,1655107044
1498,victoria,22.2855,114.1577,87.85,86,84,8.01,sc,1655107263
1499,abu dhabi,24.4667,54.3667,105.91,57,0,10.36,ae,1655107449
1500,jamestown,42.097,-79.2353,60.39,66,3,1.54,sh,1655107027
1501,mataura,-46.1927,168.8643,45.48,88,78,10.63,pf,1655106989
1502,mataura,-46.1927,168.8643,45.48,88,78,10.63,pf,1655106989
1503,qaanaaq,77.484,-69.3632,22.95,69,0,4.63,gl,1655107044
1504,nome,64.5011,-165.4064,44.67,76,100,10.36,us,1655107537
1505,bloemfontein,-29.1211,26.214,47.68,71,0,4.61,za,1655107538
1506,kinshasa,-4.3246,15.3215,79.59,55,71,3.96,cd,1655107541
1507,aksarka,66.5606,67.7975,42.08,64,100,22.73,ru,1655107542
1508,champerico,14.3,-91.9167,73.99,91,100,6.73,gt,1655107543
1509,busselton,-33.65,115.3333,61.52,71,90,14.18,au,1655107002
1510,dingle,10.9995,122.6711,87.57,66,21,5.88,ie,1655107545
1511,gurupa,-1.405,-51.64,70.02,99,42,1.95,br,1655107547
1512,alofi,-19.0595,-169.9187,73.29,88,40,4.61,nu,1655107548
1513,sao filipe,14.8961,-24.4956,72.79,81,21,6.17,cv,1655107549
1514,saskylakh,71.9167,114.0833,70.88,24,0,8.77,ru,1655107551
1515,albany,42.6001,-73.9662,66.38,94,100,2.53,au,1655107372
1516,kaitangata,-46.2817,169.8464,45.45,78,90,16.13,nz,1655107554
1517,mount isa,-20.7333,139.5,71.37,20,6,6.91,au,1655107293
1518,bilibino,68.0546,166.4372,62.78,26,64,13.29,ru,1655107557
1519,torbay,47.6666,-52.7314,41.88,90,43,3.0,ca,1655107558
1520,qaanaaq,77.484,-69.3632,22.95,69,0,4.63,gl,1655107044
1521,vila franca do campo,37.7167,-25.4333,63.19,86,100,9.35,pt,1655107560
1522,thompson,55.7435,-97.8558,52.39,90,24,2.24,ca,1655107280
1523,ushuaia,-54.8,-68.3,35.26,100,40,2.3,ar,1655106820
1524,bilibino,68.0546,166.4372,62.78,26,64,13.29,ru,1655107557
1525,faanui,-16.4833,-151.75,80.2,67,95,20.29,pf,1655107564
1526,hermanus,-34.4187,19.2345,60.8,83,100,12.19,za,1655107107
1527,vaini,-21.2,-175.2,77.16,94,75,4.61,to,1655107567
1528,adre,13.4667,22.2,83.66,46,52,6.02,td,1655107568
1529,ushuaia,-54.8,-68.3,43.03,94,97,4.5,ar,1655107321
1530,butaritari,3.0707,172.7902,82.04,69,6,12.8,ki,1655107479
1531,soroti,1.7146,33.6111,79.54,54,66,3.53,ug,1655107571
1532,gunjur,13.2019,-16.7339,78.87,89,0,5.75,gm,1655107572
1533,yatou,37.15,122.3833,72.28,64,35,14.52,cn,1655107574
1534,susangerd,31.5608,48.1831,109.33,8,0,9.01,ir,1655107575
1535,kapaa,22.0752,-159.319,75.11,83,61,4.0,us,1655107225
1536,isangel,-19.55,169.2667,77.65,86,44,1.5,vu,1655107578
1537,new norfolk,-42.7826,147.0587,45.9,84,23,1.99,au,1655107367
1538,mataura,-46.1927,168.8643,45.48,88,78,10.63,pf,1655106989
1539,qaanaaq,77.484,-69.3632,22.95,69,0,4.63,gl,1655107044
1540,bredasdorp,-34.5322,20.0403,59.77,70,100,3.58,za,1655107277
1541,thompson,55.7435,-97.8558,52.39,90,24,2.24,ca,1655107280
1542,kodiak,57.79,-152.4072,48.69,89,28,11.68,us,1655107303
1543,arman,59.7,150.1667,52.02,87,99,4.68,ru,1655107585
1544,longyearbyen,78.2186,15.6401,40.84,81,75,4.61,sj,1655107257
1545,olafsvik,64.8945,-23.7142,48.94,95,100,14.52,is,1655107588
1546,saint-philippe,-21.3585,55.7679,72.99,84,99,16.8,re,1655107590
1547,mahebourg,-20.4081,57.7,77.29,65,40,18.41,mu,1655107591
1548,shatsk,54.0258,41.7119,68.88,56,22,5.82,ru,1655107592
1549,thompson,55.7435,-97.8558,52.39,90,24,2.24,ca,1655107280
1550,vaini,-21.2,-175.2,77.16,94,75,4.61,to,1655107567
1551,biak,-0.9131,122.8766,81.36,73,97,7.27,id,1655107595
1552,port alfred,-33.5906,26.891,74.17,40,100,4.0,za,1655107141
1553,guerrero negro,27.9769,-114.0611,62.87,92,54,13.22,mx,1655107077
1554,kapaa,22.0752,-159.319,75.11,83,61,4.0,us,1655107225
1555,tasiilaq,65.6145,-37.6368,35.76,100,100,2.98,gl,1655107599
1556,barao de melgaco,-16.1944,-55.9675,51.24,58,8,4.7,br,1655107602
1557,hilo,19.7297,-155.09,78.28,90,40,3.44,us,1655107522
1558,albany,42.6001,-73.9662,66.38,94,100,2.53,au,1655107372
1559,hobart,-42.8794,147.3294,46.26,78,20,4.61,au,1655107084
1560,san quintin,30.4833,-115.95,62.04,89,93,9.82,mx,1655107085
1561,tuktoyaktuk,69.4541,-133.0374,32.47,89,100,6.91,ca,1655107372
1562,goderich,43.7501,-81.7165,52.92,74,6,6.98,sl,1655107608
1563,limbe,4.0242,9.2149,80.19,80,53,2.55,cm,1655107609
1564,vila velha,-20.3297,-40.2925,66.94,85,100,17.0,br,1655107271
1565,rawson,-43.3002,-65.1023,53.2,29,100,10.74,ar,1655107071
1566,constitucion,-35.3333,-72.4167,47.05,89,98,2.08,cl,1655107256
1567,okhotsk,59.3833,143.3,43.3,92,100,5.88,ru,1655107613
1568,port alfred,-33.5906,26.891,74.17,40,100,4.0,za,1655107141
1569,punta arenas,-53.15,-70.9167,42.91,93,100,8.05,cl,1655107616
1570,khatanga,71.9667,102.5,73.42,26,100,7.87,ru,1655107190
1571,suntar,62.1444,117.6319,67.98,38,80,8.34,ru,1655107618
1572,vaini,-21.2,-175.2,77.16,94,75,4.61,to,1655107567
1573,cabo san lucas,22.8909,-109.9124,82.62,71,8,10.96,mx,1655107620
1574,goderich,43.7501,-81.7165,52.92,74,6,6.98,sl,1655107608
1575,naliya,23.2667,68.8333,91.71,51,93,14.23,in,1655107622
1576,lebu,-37.6167,-73.65,46.98,87,38,10.56,cl,1655107032
1577,kjollefjord,70.9457,27.3465,44.65,91,100,17.52,no,1655107626
1578,meghraj,23.5,73.5,78.12,84,100,8.46,in,1655107627
1579,zavetnoye,47.1194,43.8903,82.92,35,98,17.13,ru,1655107628
1580,longyearbyen,78.2186,15.6401,40.84,81,75,4.61,sj,1655107257
1581,jamestown,42.097,-79.2353,60.39,66,3,1.54,sh,1655107027
1582,khatanga,71.9667,102.5,73.42,26,100,7.87,ru,1655107190
1583,qaanaaq,77.484,-69.3632,22.95,69,0,4.63,gl,1655107044
1584,algiers,36.7525,3.042,75.02,47,0,1.14,dz,1655107365
1585,praia da vitoria,38.7333,-27.0667,62.76,91,36,14.45,pt,1655107636
1586,stornoway,58.2093,-6.3865,53.92,96,75,8.05,gb,1655107638
1587,mpika,-11.8343,31.4529,64.83,46,0,9.48,zm,1655107639
1588,chokurdakh,70.6333,147.9167,70.95,21,7,7.63,ru,1655107510
1589,ugoofaaru,5.6667,73.0,83.08,77,100,9.62,mv,1655107642
1590,bluff,-46.6,168.3333,45.81,63,80,27.36,nz,1655107055
1591,arraial do cabo,-22.9661,-42.0278,66.85,66,100,26.15,br,1655107496
1592,ushuaia,-54.8,-68.3,43.03,94,97,4.5,ar,1655107321
1593,karratha,-20.7377,116.8463,79.39,42,0,12.82,au,1655107648
1594,georgetown,5.4112,100.3354,91.33,70,20,10.36,us,1655106996
1595,antofagasta,-23.65,-70.4,55.92,79,29,4.25,cl,1655107370
1596,bethel,41.3712,-73.414,66.9,96,75,0.0,us,1655107436
1597,qaanaaq,77.484,-69.3632,22.95,69,0,4.63,gl,1655107652
1598,longyearbyen,78.2186,15.6401,40.84,81,75,4.61,sj,1655107257
1599,vestmannaeyjar,63.4427,-20.2734,49.19,100,100,13.8,is,1655107654
1600,vaini,-21.2,-175.2,77.16,94,75,4.61,to,1655107567
1601,rikitea,-23.1203,-134.9692,73.09,66,62,12.33,pf,1655107149
1602,prince rupert,54.3161,-130.3201,49.37,85,93,1.52,ca,1655107657
1603,puerto ayora,-0.7393,-90.3518,71.55,94,83,5.01,ec,1655107204
1604,qaanaaq,77.484,-69.3632,22.95,69,0,4.63,gl,1655107652
1605,ushuaia,-54.8,-68.3,43.03,94,97,4.5,ar,1655107321
1606,ushuaia,-54.8,-68.3,43.03,94,97,4.5,ar,1655107321
1607,bengkulu,-3.8004,102.2655,83.91,65,100,6.04,id,1655107663
1608,lisakovsk,52.5369,62.4936,67.87,46,8,12.95,kz,1655107664
1609,cabo san lucas,22.8909,-109.9124,82.62,71,8,10.96,mx,1655107620
1610,hermanus,-34.4187,19.2345,60.8,83,100,12.19,za,1655107107
1611,sabang,5.8933,95.3214,83.89,71,67,9.08,id,1655107667
1612,albany,42.6001,-73.9662,66.38,94,100,2.53,au,1655107372
1613,rikitea,-23.1203,-134.9692,73.09,66,62,12.33,pf,1655107149
1614,jamestown,42.097,-79.2353,60.39,66,3,1.54,sh,1655107027
1615,muroto,33.2833,134.15,70.07,73,100,7.67,jp,1655107671
1616,kapaa,22.0752,-159.319,75.11,83,61,4.0,us,1655107225
1617,barrow,71.2906,-156.7887,26.62,93,100,8.05,us,1655107288
1618,hilo,19.7297,-155.09,78.28,90,40,3.44,us,1655107522
1619,kaiserslautern,49.45,7.75,68.41,21,0,5.75,de,1655107676
1620,tuatapere,-46.1333,167.6833,43.84,79,93,15.05,nz,1655107677
1621,albany,42.6001,-73.9662,66.38,94,100,2.53,au,1655107372
1622,carnarvon,-24.8667,113.6333,71.01,50,0,13.31,au,1655107091
1623,mataura,-46.1927,168.8643,45.48,88,78,10.63,pf,1655107681
1624,albany,42.6001,-73.9662,66.38,94,100,2.53,au,1655107372
1625,upernavik,72.7868,-56.1549,28.53,96,100,5.48,gl,1655107683
1626,bathsheba,13.2167,-59.5167,81.21,78,75,16.11,bb,1655107685
1627,port moresby,-9.4431,147.1797,79.79,84,45,13.35,pg,1655107686
1628,naze,28.3667,129.4833,77.92,81,97,22.41,jp,1655107199
1629,axim,4.8699,-2.2405,79.56,72,97,4.27,gh,1655107688
1630,rincon,32.296,-81.2354,78.84,93,0,8.05,an,1655107673
1631,pevek,69.7008,170.3133,39.92,65,61,9.78,ru,1655107476
1632,tuktoyaktuk,69.4541,-133.0374,32.47,89,100,6.91,ca,1655107372
1633,punta arenas,-53.15,-70.9167,42.91,93,100,8.05,cl,1655107616
1634,tamandare,-8.7597,-35.1047,72.18,91,24,3.85,br,1655107696
